[
  {
    "id": 247966855,
    "type": "node",
    "category": "schools",
    "name": "Unnamed School",
    "lat": 12.877212,
    "lon": 77.602599,
    "tags": {
      "amenity": "school"
    }
  },
  {
    "id": 263472508,
    "type": "node",
    "category": "schools",
    "name": "Angel Heart Montessori Play School",
    "lat": 12.91875,
    "lon": 77.651833,
    "tags": {
      "amenity": "school",
      "name": "Angel Heart Montessori Play School"
    }
  },
  {
    "id": 266739260,
    "type": "node",
    "category": "schools",
    "name": "International Business School",
    "lat": 12.863004,
    "lon": 77.659424,
    "tags": {
      "amenity": "college",
      "name": "International Business School"
    }
  },
  {
    "id": 391929291,
    "type": "node",
    "category": "schools",
    "name": "Swamy Vivekananda Primary and High School",
    "lat": 13.048311,
    "lon": 77.634217,
    "tags": {
      "amenity": "school",
      "name": "Swamy Vivekananda Primary and High School"
    }
  },
  {
    "id": 410861199,
    "type": "node",
    "category": "schools",
    "name": "Golden Chariot Public School",
    "lat": 13.098926,
    "lon": 77.635046,
    "tags": {
      "amenity": "school",
      "name": "Golden Chariot Public School"
    }
  },
  {
    "id": 412681648,
    "type": "node",
    "category": "schools",
    "name": "Manasa Public School",
    "lat": 13.055771,
    "lon": 77.63275,
    "tags": {
      "amenity": "school",
      "name": "Manasa Public School"
    }
  },
  {
    "id": 417894271,
    "type": "node",
    "category": "schools",
    "name": "United Public School",
    "lat": 13.038417,
    "lon": 77.638774,
    "tags": {
      "amenity": "school",
      "name": "United Public School"
    }
  },
  {
    "id": 440668799,
    "type": "node",
    "category": "schools",
    "name": "L.B.S. School",
    "lat": 13.051954,
    "lon": 77.688554,
    "tags": {
      "amenity": "school",
      "name": "L.B.S. School"
    }
  },
  {
    "id": 443615005,
    "type": "node",
    "category": "schools",
    "name": "Yuvalok School",
    "lat": 13.037197,
    "lon": 77.642768,
    "tags": {
      "amenity": "school",
      "name": "Yuvalok School"
    }
  },
  {
    "id": 443615521,
    "type": "node",
    "category": "schools",
    "name": "Sinclairs High School",
    "lat": 13.03175,
    "lon": 77.643778,
    "tags": {
      "amenity": "school",
      "name": "Sinclairs High School"
    }
  },
  {
    "id": 446045650,
    "type": "node",
    "category": "schools",
    "name": "Centre for Product Design and Manufacturing (CPDM)",
    "lat": 13.015118,
    "lon": 77.568118,
    "tags": {
      "amenity": "college",
      "name": "Centre for Product Design and Manufacturing (CPDM)"
    }
  },
  {
    "id": 446045651,
    "type": "node",
    "category": "schools",
    "name": "CiSTUP",
    "lat": 13.013238,
    "lon": 77.568617,
    "tags": {
      "amenity": "college",
      "name": "CiSTUP"
    }
  },
  {
    "id": 446046410,
    "type": "node",
    "category": "schools",
    "name": "Interdisciplinary Centre for Energy Research",
    "lat": 13.015521,
    "lon": 77.568121,
    "tags": {
      "amenity": "college",
      "name": "Interdisciplinary Centre for Energy Research"
    }
  },
  {
    "id": 446049321,
    "type": "node",
    "category": "schools",
    "name": "Interdisciplinary Centre for Water Research",
    "lat": 13.015858,
    "lon": 77.568389,
    "tags": {
      "amenity": "college",
      "name": "Interdisciplinary Centre for Water Research"
    }
  },
  {
    "id": 446049323,
    "type": "node",
    "category": "schools",
    "name": "Organic Chemistry",
    "lat": 13.016409,
    "lon": 77.56825,
    "tags": {
      "amenity": "college",
      "name": "Organic Chemistry",
      "website": "https://orgchem.iisc.ac.in/"
    }
  },
  {
    "id": 446049326,
    "type": "node",
    "category": "schools",
    "name": "Inorganic and Physical Chemistry",
    "lat": 13.016856,
    "lon": 77.568274,
    "tags": {
      "amenity": "college",
      "name": "Inorganic and Physical Chemistry",
      "website": "https://ipc.iisc.ac.in/"
    }
  },
  {
    "id": 446054726,
    "type": "node",
    "category": "schools",
    "name": "Central Purchase and Stores",
    "lat": 13.017383,
    "lon": 77.565975,
    "tags": {
      "amenity": "college",
      "name": "Central Purchase and Stores"
    }
  },
  {
    "id": 446055066,
    "type": "node",
    "category": "schools",
    "name": "Insdoc",
    "lat": 13.017177,
    "lon": 77.56485,
    "tags": {
      "amenity": "college",
      "name": "Insdoc"
    }
  },
  {
    "id": 446059520,
    "type": "node",
    "category": "schools",
    "name": "Electronic Systems Engineering",
    "lat": 13.018634,
    "lon": 77.570924,
    "tags": {
      "amenity": "college",
      "name": "Electronic Systems Engineering",
      "website": "https://www.dese.iisc.ac.in/"
    }
  },
  {
    "id": 446059521,
    "type": "node",
    "category": "schools",
    "name": "Joint Advanced Technology Programme",
    "lat": 13.017545,
    "lon": 77.57002,
    "tags": {
      "amenity": "college",
      "name": "Joint Advanced Technology Programme"
    }
  },
  {
    "id": 446059863,
    "type": "node",
    "category": "schools",
    "name": "Amenities Hall",
    "lat": 13.018565,
    "lon": 77.56453,
    "tags": {
      "amenity": "college",
      "name": "Amenities Hall"
    }
  },
  {
    "id": 446059864,
    "type": "node",
    "category": "schools",
    "name": "Tata Memorial Club",
    "lat": 13.018047,
    "lon": 77.564988,
    "tags": {
      "amenity": "college",
      "name": "Tata Memorial Club"
    }
  },
  {
    "id": 454090309,
    "type": "node",
    "category": "schools",
    "name": "Florida College of Management and Computer Science",
    "lat": 13.026823,
    "lon": 77.632901,
    "tags": {
      "amenity": "college",
      "name": "Florida College of Management and Computer Science"
    }
  },
  {
    "id": 454090311,
    "type": "node",
    "category": "schools",
    "name": "Florida College of Education",
    "lat": 13.026926,
    "lon": 77.632939,
    "tags": {
      "amenity": "college",
      "name": "Florida College of Education"
    }
  },
  {
    "id": 454090312,
    "type": "node",
    "category": "schools",
    "name": "Florence College of Physiotherapy",
    "lat": 13.027134,
    "lon": 77.633011,
    "tags": {
      "amenity": "college",
      "name": "Florence College of Physiotherapy"
    }
  },
  {
    "id": 459811954,
    "type": "node",
    "category": "schools",
    "name": "Sacred Hearts Girls School",
    "lat": 12.969422,
    "lon": 77.60339,
    "tags": {
      "amenity": "school",
      "name": "Sacred Hearts Girls School",
      "operator": "Department of Education"
    }
  },
  {
    "id": 514307734,
    "type": "node",
    "category": "schools",
    "name": "Gopalan International Schoool",
    "lat": 12.985314,
    "lon": 77.718376,
    "tags": {
      "addr:city": "Hoodi, Mahadevapura, Bangalore",
      "addr:street": "Basava Nagar Main Road",
      "amenity": "school",
      "name": "Gopalan International Schoool"
    }
  },
  {
    "id": 518624061,
    "type": "node",
    "category": "schools",
    "name": "Hoodi High School",
    "lat": 12.993422,
    "lon": 77.716767,
    "tags": {
      "addr:street": "Hoodi Main Road",
      "amenity": "school",
      "name": "Hoodi High School"
    }
  },
  {
    "id": 529780984,
    "type": "node",
    "category": "schools",
    "name": "Carmel High School",
    "lat": 12.988591,
    "lon": 77.544293,
    "tags": {
      "amenity": "school",
      "name": "Carmel High School"
    }
  },
  {
    "id": 573333532,
    "type": "node",
    "category": "schools",
    "name": "Stella Maris School",
    "lat": 13.006454,
    "lon": 77.578031,
    "tags": {
      "addr:street": "Sankey Tank Road",
      "amenity": "school",
      "name": "Stella Maris School"
    }
  },
  {
    "id": 579371985,
    "type": "node",
    "category": "schools",
    "name": "Madrasa-e Arabiya",
    "lat": 12.943087,
    "lon": 77.599464,
    "tags": {
      "amenity": "school",
      "name": "Madrasa-e Arabiya"
    }
  },
  {
    "id": 593146903,
    "type": "node",
    "category": "schools",
    "name": "National Bureau of Agriculturally Important Insects",
    "lat": 13.026313,
    "lon": 77.584577,
    "tags": {
      "amenity": "college",
      "name": "National Bureau of Agriculturally Important Insects"
    }
  },
  {
    "id": 597066210,
    "type": "node",
    "category": "schools",
    "name": "Vijaya Vittala Institute of Technology",
    "lat": 13.076936,
    "lon": 77.666508,
    "tags": {
      "amenity": "college",
      "name": "Vijaya Vittala Institute of Technology"
    }
  },
  {
    "id": 597066214,
    "type": "node",
    "category": "schools",
    "name": "Alpha College of Engineering",
    "lat": 13.07633,
    "lon": 77.665499,
    "tags": {
      "amenity": "college",
      "name": "Alpha College of Engineering"
    }
  },
  {
    "id": 598212615,
    "type": "node",
    "category": "schools",
    "name": "B. P. Indian",
    "lat": 13.001174,
    "lon": 77.568339,
    "tags": {
      "amenity": "school",
      "name": "B. P. Indian"
    }
  },
  {
    "id": 598947938,
    "type": "node",
    "category": "schools",
    "name": "Father Mathews School",
    "lat": 13.045766,
    "lon": 77.54163,
    "tags": {
      "amenity": "school",
      "name": "Father Mathews School"
    }
  },
  {
    "id": 608492745,
    "type": "node",
    "category": "schools",
    "name": "Vani Vilas",
    "lat": 13.009265,
    "lon": 77.56218,
    "tags": {
      "amenity": "school",
      "name": "Vani Vilas"
    }
  },
  {
    "id": 638379029,
    "type": "node",
    "category": "schools",
    "name": "Computer Aided Design Laboratory",
    "lat": 13.018408,
    "lon": 77.570729,
    "tags": {
      "amenity": "college",
      "name": "Computer Aided Design Laboratory"
    }
  },
  {
    "id": 660061427,
    "type": "node",
    "category": "schools",
    "name": "RRI Hostel",
    "lat": 13.024565,
    "lon": 77.578309,
    "tags": {
      "amenity": "college",
      "name": "RRI Hostel"
    }
  },
  {
    "id": 662761071,
    "type": "node",
    "category": "schools",
    "name": "St. Sara's School",
    "lat": 12.946945,
    "lon": 77.617531,
    "tags": {
      "amenity": "school",
      "name": "St. Sara's School"
    }
  },
  {
    "id": 663604695,
    "type": "node",
    "category": "schools",
    "name": "Deccan school",
    "lat": 12.992167,
    "lon": 77.568389,
    "tags": {
      "amenity": "school",
      "name": "Deccan school"
    }
  },
  {
    "id": 663604698,
    "type": "node",
    "category": "schools",
    "name": "Anganavadi",
    "lat": 12.991587,
    "lon": 77.568421,
    "tags": {
      "amenity": "school",
      "name": "Anganavadi"
    }
  },
  {
    "id": 663604709,
    "type": "node",
    "category": "schools",
    "name": "Government School",
    "lat": 12.949628,
    "lon": 77.613966,
    "tags": {
      "amenity": "school",
      "name": "Government School"
    }
  },
  {
    "id": 663604710,
    "type": "node",
    "category": "schools",
    "name": "Methodist church school",
    "lat": 12.949762,
    "lon": 77.614336,
    "tags": {
      "amenity": "school",
      "name": "Methodist church school"
    }
  },
  {
    "id": 663604714,
    "type": "node",
    "category": "schools",
    "name": "Adithya public school",
    "lat": 12.949921,
    "lon": 77.615152,
    "tags": {
      "amenity": "school",
      "name": "Adithya public school"
    }
  },
  {
    "id": 663920339,
    "type": "node",
    "category": "schools",
    "name": "Nagasena Vidyalaya",
    "lat": 13.014089,
    "lon": 77.576078,
    "tags": {
      "addr:street": "CV Raman Avenue",
      "amenity": "school",
      "name": "Nagasena Vidyalaya"
    }
  },
  {
    "id": 664332022,
    "type": "node",
    "category": "schools",
    "name": "Advanced Animation Academy",
    "lat": 13.008965,
    "lon": 77.580665,
    "tags": {
      "amenity": "school",
      "name": "Advanced Animation Academy"
    }
  },
  {
    "id": 665727324,
    "type": "node",
    "category": "schools",
    "name": "Vasavi Education Trust School",
    "lat": 12.908146,
    "lon": 77.592971,
    "tags": {
      "amenity": "school",
      "name": "Vasavi Education Trust School"
    }
  },
  {
    "id": 674755220,
    "type": "node",
    "category": "schools",
    "name": "Light and Matter Physics",
    "lat": 13.013703,
    "lon": 77.581622,
    "tags": {
      "amenity": "college",
      "name": "Light and Matter Physics"
    }
  },
  {
    "id": 734864105,
    "type": "node",
    "category": "schools",
    "name": "Student Amenities Center",
    "lat": 13.014559,
    "lon": 77.560874,
    "tags": {
      "amenity": "college",
      "name": "Student Amenities Center"
    }
  },
  {
    "id": 734864130,
    "type": "node",
    "category": "schools",
    "name": "Student Council Office",
    "lat": 13.017948,
    "lon": 77.56615,
    "tags": {
      "amenity": "college",
      "name": "Student Council Office"
    }
  },
  {
    "id": 735032265,
    "type": "node",
    "category": "schools",
    "name": "Hostel Office",
    "lat": 13.016376,
    "lon": 77.565152,
    "tags": {
      "amenity": "college",
      "name": "Hostel Office"
    }
  },
  {
    "id": 735032281,
    "type": "node",
    "category": "schools",
    "name": "Society for Innovation and Development",
    "lat": 13.012921,
    "lon": 77.569001,
    "tags": {
      "amenity": "college",
      "name": "Society for Innovation and Development",
      "website": "https://sid.iisc.ac.in/"
    }
  },
  {
    "id": 859809191,
    "type": "node",
    "category": "schools",
    "name": "Naasih Montessori Public School",
    "lat": 13.001677,
    "lon": 77.613812,
    "tags": {
      "amenity": "school",
      "name": "Naasih Montessori Public School"
    }
  },
  {
    "id": 949313546,
    "type": "node",
    "category": "schools",
    "name": "St Josephs Eng Pri Sch, B T M Layout W No 65",
    "lat": 12.914147,
    "lon": 77.611692,
    "tags": {
      "amenity": "school",
      "name": "St Josephs Eng Pri Sch, B T M Layout W No 65",
      "operator": "Higher Secondary"
    }
  },
  {
    "id": 953435253,
    "type": "node",
    "category": "schools",
    "name": "Auden Public School",
    "lat": 12.938102,
    "lon": 77.543378,
    "tags": {
      "amenity": "school",
      "name": "Auden Public School"
    }
  },
  {
    "id": 953685844,
    "type": "node",
    "category": "schools",
    "name": "Auden School",
    "lat": 12.932344,
    "lon": 77.543798,
    "tags": {
      "amenity": "school",
      "name": "Auden School"
    }
  },
  {
    "id": 959252342,
    "type": "node",
    "category": "schools",
    "name": "Drishya",
    "lat": 13.104802,
    "lon": 77.581064,
    "tags": {
      "amenity": "school",
      "name": "Drishya"
    }
  },
  {
    "id": 962904402,
    "type": "node",
    "category": "schools",
    "name": "SM English School",
    "lat": 12.984677,
    "lon": 77.718395,
    "tags": {
      "addr:city": "Hoodi, Mahadevapura, Bangalore",
      "addr:street": "Basava Nagar Main Road",
      "amenity": "school",
      "name": "SM English School"
    }
  },
  {
    "id": 986732874,
    "type": "node",
    "category": "schools",
    "name": "Mother Montessori House of Children Pre-school",
    "lat": 12.985118,
    "lon": 77.679021,
    "tags": {
      "amenity": "school",
      "name": "Mother Montessori House of Children Pre-school"
    }
  },
  {
    "id": 986744080,
    "type": "node",
    "category": "schools",
    "name": "LR International School",
    "lat": 12.977267,
    "lon": 77.679729,
    "tags": {
      "amenity": "school",
      "name": "LR International School"
    }
  },
  {
    "id": 1015924225,
    "type": "node",
    "category": "schools",
    "name": "Vijaya Pre-University College",
    "lat": 12.927914,
    "lon": 77.586616,
    "tags": {
      "amenity": "college",
      "name": "Vijaya Pre-University College"
    }
  },
  {
    "id": 1015924248,
    "type": "node",
    "category": "schools",
    "name": "Holy Saint English School",
    "lat": 12.921774,
    "lon": 77.592511,
    "tags": {
      "amenity": "school",
      "name": "Holy Saint English School"
    }
  },
  {
    "id": 1015924266,
    "type": "node",
    "category": "schools",
    "name": "Saraswati Vidya Mandir",
    "lat": 12.934034,
    "lon": 77.587485,
    "tags": {
      "amenity": "school",
      "name": "Saraswati Vidya Mandir"
    }
  },
  {
    "id": 1015924294,
    "type": "node",
    "category": "schools",
    "name": "Good Shepherd School",
    "lat": 12.922901,
    "lon": 77.581647,
    "tags": {
      "amenity": "school",
      "name": "Good Shepherd School"
    }
  },
  {
    "id": 1015924308,
    "type": "node",
    "category": "schools",
    "name": "Nehru Smaraka Vidya Kendra",
    "lat": 12.927145,
    "lon": 77.577877,
    "tags": {
      "amenity": "school",
      "name": "Nehru Smaraka Vidya Kendra"
    }
  },
  {
    "id": 1015924313,
    "type": "node",
    "category": "schools",
    "name": "Community English High School",
    "lat": 12.938769,
    "lon": 77.584118,
    "tags": {
      "amenity": "school",
      "name": "Community English High School"
    }
  },
  {
    "id": 1024500710,
    "type": "node",
    "category": "schools",
    "name": "Dr. Shyamala Reddy Dental College",
    "lat": 12.949466,
    "lon": 77.702646,
    "tags": {
      "amenity": "college",
      "name": "Dr. Shyamala Reddy Dental College"
    }
  },
  {
    "id": 1066041424,
    "type": "node",
    "category": "schools",
    "name": "The Dunmore House Preschool",
    "lat": 12.963353,
    "lon": 77.731428,
    "tags": {
      "amenity": "school",
      "name": "The Dunmore House Preschool"
    }
  },
  {
    "id": 1078316967,
    "type": "node",
    "category": "schools",
    "name": "Neev School",
    "lat": 12.962572,
    "lon": 77.747691,
    "tags": {
      "amenity": "school",
      "name": "Neev School"
    }
  },
  {
    "id": 1085786963,
    "type": "node",
    "category": "schools",
    "name": "Bangalore International Public School",
    "lat": 12.909513,
    "lon": 77.550286,
    "tags": {
      "addr:street": "Uttarahalli Main Road",
      "amenity": "school",
      "name": "Bangalore International Public School"
    }
  },
  {
    "id": 1093355147,
    "type": "node",
    "category": "schools",
    "name": "Jetking Computer Hardware and Networking",
    "lat": 12.978158,
    "lon": 77.725055,
    "tags": {
      "amenity": "school",
      "name": "Jetking Computer Hardware and Networking"
    }
  },
  {
    "id": 1097927623,
    "type": "node",
    "category": "schools",
    "name": "Green Country Public School",
    "lat": 13.059235,
    "lon": 77.593957,
    "tags": {
      "addr:street": "Bellary Road",
      "amenity": "school",
      "name": "Green Country Public School"
    }
  },
  {
    "id": 1101095235,
    "type": "node",
    "category": "schools",
    "name": "Bridavan College of Engineering",
    "lat": 13.12461,
    "lon": 77.620286,
    "tags": {
      "amenity": "college",
      "name": "Bridavan College of Engineering"
    }
  },
  {
    "id": 1101617173,
    "type": "node",
    "category": "schools",
    "name": "Gandhi Nagar High School",
    "lat": 12.991083,
    "lon": 77.578905,
    "tags": {
      "amenity": "school",
      "name": "Gandhi Nagar High School"
    }
  },
  {
    "id": 1108003748,
    "type": "node",
    "category": "schools",
    "name": "The New Cambridge High School",
    "lat": 12.965556,
    "lon": 77.541763,
    "tags": {
      "amenity": "school",
      "name": "The New Cambridge High School"
    }
  },
  {
    "id": 1126186796,
    "type": "node",
    "category": "schools",
    "name": "Unnamed School",
    "lat": 12.979677,
    "lon": 77.748098,
    "tags": {
      "amenity": "school"
    }
  },
  {
    "id": 1176722324,
    "type": "node",
    "category": "schools",
    "name": "Ubhaya Vedanta Pravarthana Sabha",
    "lat": 13.000813,
    "lon": 77.57018,
    "tags": {
      "amenity": "school",
      "building": "yes",
      "name": "Ubhaya Vedanta Pravarthana Sabha"
    }
  },
  {
    "id": 1185581661,
    "type": "node",
    "category": "schools",
    "name": "Society of Biological Chemists",
    "lat": 13.015537,
    "lon": 77.568748,
    "tags": {
      "amenity": "college",
      "name": "Society of Biological Chemists"
    }
  },
  {
    "id": 1228960967,
    "type": "node",
    "category": "schools",
    "name": "BGS Public School",
    "lat": 12.902264,
    "lon": 77.497498,
    "tags": {
      "amenity": "school",
      "name": "BGS Public School"
    }
  },
  {
    "id": 1290107608,
    "type": "node",
    "category": "schools",
    "name": "Nirmala Rani High School",
    "lat": 13.00929,
    "lon": 77.561498,
    "tags": {
      "amenity": "school",
      "name": "Nirmala Rani High School"
    }
  },
  {
    "id": 1311739551,
    "type": "node",
    "category": "schools",
    "name": "Ebenezer International School Bangalore",
    "lat": 12.839552,
    "lon": 77.707433,
    "tags": {
      "amenity": "school",
      "name": "Ebenezer International School Bangalore",
      "website": "https://eisbangalore.edu.in/"
    }
  },
  {
    "id": 1311760453,
    "type": "node",
    "category": "schools",
    "name": "The Oxford Dental College & Hospital",
    "lat": 12.900151,
    "lon": 77.630134,
    "tags": {
      "addr:city": "Bommanahalli, Bangalore",
      "addr:street": "Hosur Road",
      "amenity": "college",
      "name": "The Oxford Dental College & Hospital",
      "phone": "+91-80-30219626"
    }
  },
  {
    "id": 1315873980,
    "type": "node",
    "category": "schools",
    "name": "PESIT Bengaluru South",
    "lat": 12.861718,
    "lon": 77.66437,
    "tags": {
      "addr:city": "Bangalore",
      "addr:street": "Hosur Road",
      "amenity": "college",
      "name": "PESIT Bengaluru South",
      "phone": "+91-80-66186610, +91-80-66186611",
      "website": "pesit.pes.edu/"
    }
  },
  {
    "id": 1323652934,
    "type": "node",
    "category": "schools",
    "name": "Bangalore Institute of Technology",
    "lat": 12.955126,
    "lon": 77.574198,
    "tags": {
      "addr:city": "V V Puram, Bangalore",
      "addr:street": "Krishna Rajendra Road",
      "amenity": "college",
      "name": "Bangalore Institute of Technology",
      "phone": "+91-80-26615865;+91-80-26613237",
      "website": "http://www.bit-bangalore.org"
    }
  },
  {
    "id": 1323663813,
    "type": "node",
    "category": "schools",
    "name": "Kempegowda Institute of Medical Sciences",
    "lat": 12.956432,
    "lon": 77.574119,
    "tags": {
      "addr:city": "V V Puram, Bangalore",
      "addr:street": "Krishna Rajendra Road",
      "amenity": "college",
      "name": "Kempegowda Institute of Medical Sciences"
    }
  },
  {
    "id": 1323663819,
    "type": "node",
    "category": "schools",
    "name": "VV Puram College of Arts and Commerce",
    "lat": 12.954106,
    "lon": 77.574152,
    "tags": {
      "addr:city": "V V Puram, Bangalore",
      "addr:street": "Krishna Rajendra Road",
      "amenity": "college",
      "name": "VV Puram College of Arts and Commerce"
    }
  },
  {
    "id": 1331946766,
    "type": "node",
    "category": "schools",
    "name": "Prarthana School",
    "lat": 12.911945,
    "lon": 77.558136,
    "tags": {
      "amenity": "school",
      "name": "Prarthana School"
    }
  },
  {
    "id": 1331959282,
    "type": "node",
    "category": "schools",
    "name": "Gubbalala School",
    "lat": 12.888667,
    "lon": 77.541142,
    "tags": {
      "amenity": "school",
      "name": "Gubbalala School"
    }
  },
  {
    "id": 1334443053,
    "type": "node",
    "category": "schools",
    "name": "Insight Academy",
    "lat": 12.892969,
    "lon": 77.559674,
    "tags": {
      "amenity": "school",
      "name": "Insight Academy"
    }
  },
  {
    "id": 1339732021,
    "type": "node",
    "category": "schools",
    "name": "Dayanand Sagar College of Engineering",
    "lat": 12.908939,
    "lon": 77.566434,
    "tags": {
      "amenity": "college",
      "name": "Dayanand Sagar College of Engineering"
    }
  },
  {
    "id": 1370783363,
    "type": "node",
    "category": "schools",
    "name": "Unnamed School",
    "lat": 13.03657,
    "lon": 77.606489,
    "tags": {
      "amenity": "school"
    }
  },
  {
    "id": 1445333653,
    "type": "node",
    "category": "schools",
    "name": "Global Chess Academy India",
    "lat": 12.962267,
    "lon": 77.530001,
    "tags": {
      "amenity": "school",
      "name": "Global Chess Academy India",
      "phone": "+919845872499"
    }
  },
  {
    "id": 1462246347,
    "type": "node",
    "category": "schools",
    "name": "HMT Kinder Garden School",
    "lat": 13.047405,
    "lon": 77.544546,
    "tags": {
      "amenity": "school",
      "name": "HMT Kinder Garden School"
    }
  },
  {
    "id": 1462246349,
    "type": "node",
    "category": "schools",
    "name": "Mallige School Of Nursing",
    "lat": 13.047865,
    "lon": 77.544224,
    "tags": {
      "amenity": "school",
      "name": "Mallige School Of Nursing"
    }
  },
  {
    "id": 1462247631,
    "type": "node",
    "category": "schools",
    "name": "St. Claret PU College",
    "lat": 13.044103,
    "lon": 77.543967,
    "tags": {
      "amenity": "school",
      "name": "St. Claret PU College"
    }
  },
  {
    "id": 1462248328,
    "type": "node",
    "category": "schools",
    "name": "Saint Claret School",
    "lat": 13.043392,
    "lon": 77.545158,
    "tags": {
      "amenity": "school",
      "name": "Saint Claret School"
    }
  },
  {
    "id": 1463492236,
    "type": "node",
    "category": "schools",
    "name": "Mount Senora School",
    "lat": 13.005537,
    "lon": 77.525459,
    "tags": {
      "amenity": "school",
      "name": "Mount Senora School"
    }
  },
  {
    "id": 1463510108,
    "type": "node",
    "category": "schools",
    "name": "Bangalore Blaze Girls High School",
    "lat": 12.958235,
    "lon": 77.517911,
    "tags": {
      "amenity": "school",
      "name": "Bangalore Blaze Girls High School"
    }
  },
  {
    "id": 1463525671,
    "type": "node",
    "category": "schools",
    "name": "Vice Chancellor's Lodge",
    "lat": 12.937705,
    "lon": 77.50855,
    "tags": {
      "amenity": "school",
      "name": "Vice Chancellor's Lodge"
    }
  },
  {
    "id": 1463584104,
    "type": "node",
    "category": "schools",
    "name": "Swargarani",
    "lat": 12.912509,
    "lon": 77.527197,
    "tags": {
      "amenity": "school",
      "name": "Swargarani"
    }
  },
  {
    "id": 1463586819,
    "type": "node",
    "category": "schools",
    "name": "Quality Nursing Institute",
    "lat": 12.908169,
    "lon": 77.537309,
    "tags": {
      "amenity": "school",
      "name": "Quality Nursing Institute"
    }
  },
  {
    "id": 1463591334,
    "type": "node",
    "category": "schools",
    "name": "Government School",
    "lat": 12.905612,
    "lon": 77.543446,
    "tags": {
      "amenity": "school",
      "name": "Government School"
    }
  },
  {
    "id": 1463617663,
    "type": "node",
    "category": "schools",
    "name": "Poorna Prajna Education Center",
    "lat": 13.099053,
    "lon": 77.581292,
    "tags": {
      "amenity": "school",
      "name": "Poorna Prajna Education Center"
    }
  },
  {
    "id": 1463771564,
    "type": "node",
    "category": "schools",
    "name": "Unnamed School",
    "lat": 12.917096,
    "lon": 77.590505,
    "tags": {
      "amenity": "school"
    }
  },
  {
    "id": 1463790590,
    "type": "node",
    "category": "schools",
    "name": "Air Force School",
    "lat": 13.072131,
    "lon": 77.549298,
    "tags": {
      "amenity": "school",
      "name": "Air Force School"
    }
  },
  {
    "id": 1464792933,
    "type": "node",
    "category": "schools",
    "name": "Bethany High School Koramangala",
    "lat": 12.940497,
    "lon": 77.620762,
    "tags": {
      "amenity": "school",
      "name": "Bethany High School Koramangala",
      "operator": "Private Un-Aided"
    }
  },
  {
    "id": 1465007911,
    "type": "node",
    "category": "schools",
    "name": "SSM Public School",
    "lat": 12.93284,
    "lon": 77.563832,
    "tags": {
      "amenity": "school",
      "name": "SSM Public School",
      "operator": "PES Group"
    }
  },
  {
    "id": 1466482752,
    "type": "node",
    "category": "schools",
    "name": "Sacred Heart College",
    "lat": 12.965931,
    "lon": 77.661671,
    "tags": {
      "amenity": "college",
      "name": "Sacred Heart College"
    }
  },
  {
    "id": 1467778589,
    "type": "node",
    "category": "schools",
    "name": "Kamala Nehru Patashala (Emmanual English School)",
    "lat": 12.933948,
    "lon": 77.566487,
    "tags": {
      "amenity": "school",
      "name": "Kamala Nehru Patashala (Emmanual English School)"
    }
  },
  {
    "id": 1467969799,
    "type": "node",
    "category": "schools",
    "name": "Chaitnya nursing School",
    "lat": 13.099542,
    "lon": 77.586164,
    "tags": {
      "amenity": "school",
      "name": "Chaitnya nursing School"
    }
  },
  {
    "id": 1469190367,
    "type": "node",
    "category": "schools",
    "name": "Fathima's Girls High School",
    "lat": 12.996882,
    "lon": 77.610966,
    "tags": {
      "amenity": "school",
      "name": "Fathima's Girls High School"
    }
  },
  {
    "id": 1469249201,
    "type": "node",
    "category": "schools",
    "name": "Santosh Institute of Nursing & Research",
    "lat": 12.991663,
    "lon": 77.602434,
    "tags": {
      "amenity": "school",
      "name": "Santosh Institute of Nursing & Research"
    }
  },
  {
    "id": 1469266907,
    "type": "node",
    "category": "schools",
    "name": "St. Francis Xavier's High School",
    "lat": 12.993304,
    "lon": 77.613199,
    "tags": {
      "amenity": "school",
      "name": "St. Francis Xavier's High School"
    }
  },
  {
    "id": 1469266908,
    "type": "node",
    "category": "schools",
    "name": "St. Joseph's Convent Girls High School",
    "lat": 12.992426,
    "lon": 77.61358,
    "tags": {
      "amenity": "school",
      "name": "St. Joseph's Convent Girls High School"
    }
  },
  {
    "id": 1469267174,
    "type": "node",
    "category": "schools",
    "name": "Holy Angel's High School",
    "lat": 12.993816,
    "lon": 77.614477,
    "tags": {
      "amenity": "school",
      "name": "Holy Angel's High School"
    }
  },
  {
    "id": 1469267177,
    "type": "node",
    "category": "schools",
    "name": "RTC Girls High School",
    "lat": 12.992687,
    "lon": 77.614155,
    "tags": {
      "amenity": "school",
      "name": "RTC Girls High School"
    }
  },
  {
    "id": 1469643995,
    "type": "node",
    "category": "schools",
    "name": "Kripanidhi Cambridge Public School",
    "lat": 12.924637,
    "lon": 77.638451,
    "tags": {
      "amenity": "school",
      "name": "Kripanidhi Cambridge Public School"
    }
  },
  {
    "id": 1469644048,
    "type": "node",
    "category": "schools",
    "name": "St Francis ICSE school",
    "lat": 12.888921,
    "lon": 77.625261,
    "tags": {
      "amenity": "school",
      "name": "St Francis ICSE school"
    }
  },
  {
    "id": 1470553312,
    "type": "node",
    "category": "schools",
    "name": "Sri Kumaran Children's Home",
    "lat": 12.933317,
    "lon": 77.572623,
    "tags": {
      "amenity": "school",
      "name": "Sri Kumaran Children's Home"
    }
  },
  {
    "id": 1470553332,
    "type": "node",
    "category": "schools",
    "name": "SSM Primary School",
    "lat": 12.935669,
    "lon": 77.56993,
    "tags": {
      "amenity": "school",
      "name": "SSM Primary School"
    }
  },
  {
    "id": 1470553357,
    "type": "node",
    "category": "schools",
    "name": "Kumaran Children's High School",
    "lat": 12.93294,
    "lon": 77.571748,
    "tags": {
      "amenity": "school",
      "name": "Kumaran Children's High School"
    }
  },
  {
    "id": 1472121766,
    "type": "node",
    "category": "schools",
    "name": "Sharada School",
    "lat": 13.058362,
    "lon": 77.598287,
    "tags": {
      "amenity": "school",
      "name": "Sharada School"
    }
  },
  {
    "id": 1472808787,
    "type": "node",
    "category": "schools",
    "name": "Little Lilly's English School",
    "lat": 13.009239,
    "lon": 77.547815,
    "tags": {
      "amenity": "school",
      "name": "Little Lilly's English School"
    }
  },
  {
    "id": 1472858834,
    "type": "node",
    "category": "schools",
    "name": "Sri Vani Education Society",
    "lat": 13.003771,
    "lon": 77.554759,
    "tags": {
      "amenity": "school",
      "name": "Sri Vani Education Society"
    }
  },
  {
    "id": 1472934583,
    "type": "node",
    "category": "schools",
    "name": "Government Primary School Yelenahalli",
    "lat": 12.867378,
    "lon": 77.616267,
    "tags": {
      "amenity": "school",
      "name": "Government Primary School Yelenahalli",
      "operator": "Department of Education"
    }
  },
  {
    "id": 1472981138,
    "type": "node",
    "category": "schools",
    "name": "Holy Child Convent School",
    "lat": 12.93739,
    "lon": 77.56002,
    "tags": {
      "amenity": "school",
      "name": "Holy Child Convent School"
    }
  },
  {
    "id": 1473896401,
    "type": "node",
    "category": "schools",
    "name": "Niveditha school",
    "lat": 12.945367,
    "lon": 77.567209,
    "tags": {
      "amenity": "school",
      "name": "Niveditha school"
    }
  },
  {
    "id": 1473897177,
    "type": "node",
    "category": "schools",
    "name": "SSVM GP Branch",
    "lat": 12.944426,
    "lon": 77.565159,
    "tags": {
      "amenity": "school",
      "name": "SSVM GP Branch"
    }
  },
  {
    "id": 1473921785,
    "type": "node",
    "category": "schools",
    "name": "BASE",
    "lat": 12.945579,
    "lon": 77.567964,
    "tags": {
      "amenity": "school",
      "name": "BASE"
    }
  },
  {
    "id": 1473930474,
    "type": "node",
    "category": "schools",
    "name": "Unnamed School",
    "lat": 13.000472,
    "lon": 77.534631,
    "tags": {
      "amenity": "school"
    }
  },
  {
    "id": 1474058074,
    "type": "node",
    "category": "schools",
    "name": "Gautham College of Nursing",
    "lat": 13.001119,
    "lon": 77.541113,
    "tags": {
      "amenity": "school",
      "name": "Gautham College of Nursing"
    }
  },
  {
    "id": 1474058087,
    "type": "node",
    "category": "schools",
    "name": "Anupama English School",
    "lat": 13.000079,
    "lon": 77.540936,
    "tags": {
      "amenity": "school",
      "name": "Anupama English School"
    }
  },
  {
    "id": 1474827899,
    "type": "node",
    "category": "schools",
    "name": "Vasavi Polytechnic College",
    "lat": 12.973768,
    "lon": 77.544244,
    "tags": {
      "amenity": "school",
      "name": "Vasavi Polytechnic College"
    }
  },
  {
    "id": 1474854776,
    "type": "node",
    "category": "schools",
    "name": "RNS Vidyaniketan School",
    "lat": 12.961971,
    "lon": 77.532733,
    "tags": {
      "amenity": "school",
      "name": "RNS Vidyaniketan School"
    }
  },
  {
    "id": 1474854792,
    "type": "node",
    "category": "schools",
    "name": "KVV High School",
    "lat": 12.964669,
    "lon": 77.533089,
    "tags": {
      "amenity": "school",
      "name": "KVV High School"
    }
  },
  {
    "id": 1474872713,
    "type": "node",
    "category": "schools",
    "name": "Indo-German School",
    "lat": 13.004255,
    "lon": 77.658041,
    "tags": {
      "amenity": "school",
      "name": "Indo-German School"
    }
  },
  {
    "id": 1543969345,
    "type": "node",
    "category": "schools",
    "name": "Ankur Nursery School",
    "lat": 12.971997,
    "lon": 77.627804,
    "tags": {
      "addr:street": "Udani Layout, Cambridge Road",
      "amenity": "school",
      "name": "Ankur Nursery School"
    }
  },
  {
    "id": 1568765286,
    "type": "node",
    "category": "schools",
    "name": "St. Johns High School",
    "lat": 12.965518,
    "lon": 77.541311,
    "tags": {
      "amenity": "school",
      "name": "St. Johns High School"
    }
  },
  {
    "id": 1603318749,
    "type": "node",
    "category": "schools",
    "name": "Bangalore Institute of Dental Sciences",
    "lat": 12.944166,
    "lon": 77.596935,
    "tags": {
      "amenity": "college",
      "name": "Bangalore Institute of Dental Sciences",
      "website": "https://bidsinstitution.com/"
    }
  },
  {
    "id": 1614268180,
    "type": "node",
    "category": "schools",
    "name": "Bharat Seva Dal",
    "lat": 12.987338,
    "lon": 77.580531,
    "tags": {
      "amenity": "school",
      "name": "Bharat Seva Dal"
    }
  },
  {
    "id": 1617398477,
    "type": "node",
    "category": "schools",
    "name": "Yadava College",
    "lat": 12.98654,
    "lon": 77.577256,
    "tags": {
      "amenity": "college",
      "name": "Yadava College"
    }
  },
  {
    "id": 1619884915,
    "type": "node",
    "category": "schools",
    "name": "Shiksha Sagar High School",
    "lat": 13.03231,
    "lon": 77.580728,
    "tags": {
      "amenity": "school",
      "name": "Shiksha Sagar High School"
    }
  },
  {
    "id": 1620352034,
    "type": "node",
    "category": "schools",
    "name": "JSS Composite PU College",
    "lat": 12.922069,
    "lon": 77.575512,
    "tags": {
      "addr:street": "Kanakapura Road",
      "amenity": "school",
      "building": "school",
      "name": "JSS Composite PU College"
    }
  },
  {
    "id": 1644443078,
    "type": "node",
    "category": "schools",
    "name": "RNS Institute of Technology",
    "lat": 12.901785,
    "lon": 77.518379,
    "tags": {
      "addr:city": "Bangalore",
      "addr:street": "Uttarahalli Kengeri Main Road",
      "amenity": "college",
      "name": "RNS Institute of Technology"
    }
  },
  {
    "id": 1657121854,
    "type": "node",
    "category": "schools",
    "name": "Bangalore Educational Society",
    "lat": 12.926954,
    "lon": 77.588557,
    "tags": {
      "amenity": "school",
      "name": "Bangalore Educational Society"
    }
  },
  {
    "id": 1657124482,
    "type": "node",
    "category": "schools",
    "name": "Bangalore High School(BHS)",
    "lat": 12.928285,
    "lon": 77.586857,
    "tags": {
      "amenity": "school",
      "name": "Bangalore High School(BHS)"
    }
  },
  {
    "id": 1719371357,
    "type": "node",
    "category": "schools",
    "name": "Sree Rama Vidyalaya",
    "lat": 12.938312,
    "lon": 77.584307,
    "tags": {
      "addr:street": "9th Main",
      "amenity": "school",
      "name": "Sree Rama Vidyalaya"
    }
  },
  {
    "id": 1724997151,
    "type": "node",
    "category": "schools",
    "name": "Narayana PU College",
    "lat": 13.012834,
    "lon": 77.667368,
    "tags": {
      "amenity": "school",
      "name": "Narayana PU College"
    }
  },
  {
    "id": 1742670069,
    "type": "node",
    "category": "schools",
    "name": "Patel Public School",
    "lat": 13.014318,
    "lon": 77.642352,
    "tags": {
      "amenity": "school",
      "name": "Patel Public School"
    }
  },
  {
    "id": 1759857708,
    "type": "node",
    "category": "schools",
    "name": "Government Model Middle School",
    "lat": 12.981878,
    "lon": 77.768381,
    "tags": {
      "amenity": "school",
      "name": "Government Model Middle School"
    }
  },
  {
    "id": 1761876546,
    "type": "node",
    "category": "schools",
    "name": "Jain Animation School",
    "lat": 12.91799,
    "lon": 77.592087,
    "tags": {
      "amenity": "school",
      "name": "Jain Animation School"
    }
  },
  {
    "id": 1769130814,
    "type": "node",
    "category": "schools",
    "name": "Kuvempu Smaraka Vidya Kendra School",
    "lat": 12.967847,
    "lon": 77.754364,
    "tags": {
      "amenity": "school",
      "name": "Kuvempu Smaraka Vidya Kendra School"
    }
  },
  {
    "id": 1789727639,
    "type": "node",
    "category": "schools",
    "name": "Unnamed School",
    "lat": 12.959881,
    "lon": 77.564025,
    "tags": {
      "amenity": "school"
    }
  },
  {
    "id": 1791576981,
    "type": "node",
    "category": "schools",
    "name": "BBUL Jain Vidyalaya",
    "lat": 12.954009,
    "lon": 77.572491,
    "tags": {
      "amenity": "school",
      "name": "BBUL Jain Vidyalaya"
    }
  },
  {
    "id": 1794110629,
    "type": "node",
    "category": "schools",
    "name": "Gnanabodhini English Pre-Primary School",
    "lat": 12.926312,
    "lon": 77.494515,
    "tags": {
      "amenity": "school",
      "name": "Gnanabodhini English Pre-Primary School"
    }
  },
  {
    "id": 1794166354,
    "type": "node",
    "category": "schools",
    "name": "Unnamed School",
    "lat": 13.003451,
    "lon": 77.504231,
    "tags": {
      "amenity": "school"
    }
  },
  {
    "id": 1814593842,
    "type": "node",
    "category": "schools",
    "name": "Sahakari Vidya Kendra",
    "lat": 12.918408,
    "lon": 77.559111,
    "tags": {
      "amenity": "school",
      "name": "Sahakari Vidya Kendra"
    }
  },
  {
    "id": 1818493716,
    "type": "node",
    "category": "schools",
    "name": "Government Primary School, Vittasandra",
    "lat": 12.859479,
    "lon": 77.634424,
    "tags": {
      "amenity": "school",
      "name": "Government Primary School, Vittasandra"
    }
  },
  {
    "id": 1837440175,
    "type": "node",
    "category": "schools",
    "name": "Alliance Business School Admin Office",
    "lat": 12.916949,
    "lon": 77.6194,
    "tags": {
      "amenity": "college",
      "name": "Alliance Business School Admin Office"
    }
  },
  {
    "id": 1848054126,
    "type": "node",
    "category": "schools",
    "name": "Government School Munekolala",
    "lat": 12.951991,
    "lon": 77.706771,
    "tags": {
      "amenity": "school",
      "name": "Government School Munekolala"
    }
  },
  {
    "id": 1868767189,
    "type": "node",
    "category": "schools",
    "name": "Jnanadeepika School",
    "lat": 13.082809,
    "lon": 77.588099,
    "tags": {
      "amenity": "school",
      "name": "Jnanadeepika School"
    }
  },
  {
    "id": 1877209119,
    "type": "node",
    "category": "schools",
    "name": "Capitol Public School",
    "lat": 12.888068,
    "lon": 77.581013,
    "tags": {
      "amenity": "school",
      "name": "Capitol Public School"
    }
  },
  {
    "id": 1884945635,
    "type": "node",
    "category": "schools",
    "name": "Hennur Government School",
    "lat": 13.034726,
    "lon": 77.634464,
    "tags": {
      "amenity": "school",
      "name": "Hennur Government School"
    }
  },
  {
    "id": 1894246710,
    "type": "node",
    "category": "schools",
    "name": "Dolphin",
    "lat": 13.100742,
    "lon": 77.486173,
    "tags": {
      "amenity": "school",
      "name": "Dolphin"
    }
  },
  {
    "id": 1990864085,
    "type": "node",
    "category": "schools",
    "name": "Indus Early Learning Centre",
    "lat": 12.974659,
    "lon": 77.74526,
    "tags": {
      "amenity": "school",
      "name": "Indus Early Learning Centre"
    }
  },
  {
    "id": 2002703954,
    "type": "node",
    "category": "schools",
    "name": "Capitol College of Nursing",
    "lat": 12.884946,
    "lon": 77.581832,
    "tags": {
      "amenity": "college",
      "name": "Capitol College of Nursing"
    }
  },
  {
    "id": 2003935536,
    "type": "node",
    "category": "schools",
    "name": "St Aloysius Pre Unniversity College",
    "lat": 12.994291,
    "lon": 77.619603,
    "tags": {
      "amenity": "school",
      "name": "St Aloysius Pre Unniversity College"
    }
  },
  {
    "id": 2012546405,
    "type": "node",
    "category": "schools",
    "name": "Cambridge School Kothanur",
    "lat": 12.886025,
    "lon": 77.585654,
    "tags": {
      "amenity": "school",
      "name": "Cambridge School Kothanur",
      "operator": "Private Un-Aided"
    }
  },
  {
    "id": 2026103149,
    "type": "node",
    "category": "schools",
    "name": "East West Institue of Technology",
    "lat": 12.975946,
    "lon": 77.483237,
    "tags": {
      "amenity": "school",
      "name": "East West Institue of Technology"
    }
  },
  {
    "id": 2028113926,
    "type": "node",
    "category": "schools",
    "name": "Satish Dhawan Auditorium",
    "lat": 13.013814,
    "lon": 77.569441,
    "tags": {
      "amenity": "college",
      "name": "Satish Dhawan Auditorium"
    }
  },
  {
    "id": 2079415303,
    "type": "node",
    "category": "schools",
    "name": "St. Joseph's Indian Composite PU College",
    "lat": 12.968939,
    "lon": 77.595044,
    "tags": {
      "amenity": "school",
      "name": "St. Joseph's Indian Composite PU College"
    }
  },
  {
    "id": 2123565317,
    "type": "node",
    "category": "schools",
    "name": "Prarthana School",
    "lat": 12.914664,
    "lon": 77.559228,
    "tags": {
      "amenity": "school",
      "name": "Prarthana School"
    }
  },
  {
    "id": 2173392419,
    "type": "node",
    "category": "schools",
    "name": "Bangalore Scottish School",
    "lat": 12.880358,
    "lon": 77.579658,
    "tags": {
      "addr:street": "7th Main Road",
      "amenity": "school",
      "name": "Bangalore Scottish School",
      "opening_hours": "Mo-Su 09:00-18:30",
      "operator": "Orchids International School",
      "phone": "9513731352",
      "website": "https://www.orchidsinternationalschool.com/bangalore-branches/jp-nagar/"
    }
  },
  {
    "id": 2181320618,
    "type": "node",
    "category": "schools",
    "name": "Srinidhi Public School",
    "lat": 12.882804,
    "lon": 77.570404,
    "tags": {
      "amenity": "school",
      "name": "Srinidhi Public School"
    }
  },
  {
    "id": 2234361363,
    "type": "node",
    "category": "schools",
    "name": "Jnana Deepthi English Primary and High School",
    "lat": 12.943807,
    "lon": 77.542,
    "tags": {
      "addr:city": "Bangalore",
      "addr:street": "6th Main Road",
      "amenity": "school",
      "name": "Jnana Deepthi English Primary and High School"
    }
  },
  {
    "id": 2245734445,
    "type": "node",
    "category": "schools",
    "name": "BSVP School",
    "lat": 12.973163,
    "lon": 77.541096,
    "tags": {
      "amenity": "school",
      "name": "BSVP School"
    }
  },
  {
    "id": 2249055949,
    "type": "node",
    "category": "schools",
    "name": "St Ann's School",
    "lat": 12.980011,
    "lon": 77.55661,
    "tags": {
      "amenity": "school",
      "name": "St Ann's School"
    }
  },
  {
    "id": 2249058820,
    "type": "node",
    "category": "schools",
    "name": "St Mira's School",
    "lat": 12.977669,
    "lon": 77.555366,
    "tags": {
      "amenity": "school",
      "name": "St Mira's School"
    }
  },
  {
    "id": 2272446785,
    "type": "node",
    "category": "schools",
    "name": "New Baldwins School",
    "lat": 13.014164,
    "lon": 77.657512,
    "tags": {
      "amenity": "school",
      "name": "New Baldwins School"
    }
  },
  {
    "id": 2332679567,
    "type": "node",
    "category": "schools",
    "name": "Vinayaka Vidya Samsthe",
    "lat": 12.936904,
    "lon": 77.557755,
    "tags": {
      "addr:city": "Bangalore",
      "addr:street": "1st Main Road, Srinivasa Nagar",
      "amenity": "school",
      "name": "Vinayaka Vidya Samsthe"
    }
  },
  {
    "id": 2335452268,
    "type": "node",
    "category": "schools",
    "name": "Little Lilly's chool",
    "lat": 13.076318,
    "lon": 77.556987,
    "tags": {
      "amenity": "school",
      "name": "Little Lilly's chool"
    }
  },
  {
    "id": 2399197710,
    "type": "node",
    "category": "schools",
    "name": "GHPS Bettadasana Pura",
    "lat": 12.840514,
    "lon": 77.631092,
    "tags": {
      "amenity": "school",
      "name": "GHPS Bettadasana Pura",
      "operator": "Department of Education"
    }
  },
  {
    "id": 2404638854,
    "type": "node",
    "category": "schools",
    "name": "St Paul",
    "lat": 13.031494,
    "lon": 77.642193,
    "tags": {
      "amenity": "school",
      "name": "St Paul"
    }
  },
  {
    "id": 2405794811,
    "type": "node",
    "category": "schools",
    "name": "Horticulture Training Center",
    "lat": 12.94447,
    "lon": 77.584775,
    "tags": {
      "amenity": "college",
      "name": "Horticulture Training Center"
    }
  },
  {
    "id": 2411618321,
    "type": "node",
    "category": "schools",
    "name": "Government School",
    "lat": 12.981274,
    "lon": 77.733398,
    "tags": {
      "amenity": "school",
      "name": "Government School"
    }
  },
  {
    "id": 2473242531,
    "type": "node",
    "category": "schools",
    "name": "Mother Mary English School",
    "lat": 13.005467,
    "lon": 77.648272,
    "tags": {
      "amenity": "school",
      "name": "Mother Mary English School"
    }
  },
  {
    "id": 2474969412,
    "type": "node",
    "category": "schools",
    "name": "Unnamed School",
    "lat": 13.005353,
    "lon": 77.755029,
    "tags": {
      "amenity": "school"
    }
  },
  {
    "id": 2475354324,
    "type": "node",
    "category": "schools",
    "name": "East Point College",
    "lat": 13.015581,
    "lon": 77.642656,
    "tags": {
      "addr:city": "Kalyan Nagar, Bangalore",
      "addr:street": "7 Main Road",
      "amenity": "college",
      "name": "East Point College"
    }
  },
  {
    "id": 2480884735,
    "type": "node",
    "category": "schools",
    "name": "Pinewood High School",
    "lat": 12.975101,
    "lon": 77.531125,
    "tags": {
      "addr:city": "Bangalore",
      "addr:street": "Nagarabhavi Road",
      "amenity": "school",
      "name": "Pinewood High School"
    }
  },
  {
    "id": 2480884740,
    "type": "node",
    "category": "schools",
    "name": "ASC Study Center",
    "lat": 12.975361,
    "lon": 77.531348,
    "tags": {
      "addr:city": "Bangalore",
      "addr:street": "Nagarabhavi Road",
      "amenity": "college",
      "name": "ASC Study Center"
    }
  },
  {
    "id": 2480884757,
    "type": "node",
    "category": "schools",
    "name": "ASC Degree College",
    "lat": 12.976155,
    "lon": 77.530549,
    "tags": {
      "addr:city": "Bangalore",
      "addr:street": "60 Feet Road, Pattegarara Palya Main Road",
      "amenity": "college",
      "name": "ASC Degree College"
    }
  },
  {
    "id": 2480884762,
    "type": "node",
    "category": "schools",
    "name": "Cordial High School",
    "lat": 12.975493,
    "lon": 77.532493,
    "tags": {
      "addr:city": "Bangalore",
      "addr:street": "11th Cross",
      "amenity": "school",
      "name": "Cordial High School"
    }
  },
  {
    "id": 2497073985,
    "type": "node",
    "category": "schools",
    "name": "Zee Institute of Creative Arts",
    "lat": 12.990038,
    "lon": 77.537746,
    "tags": {
      "addr:city": "Bangalore",
      "addr:street": "1st main Basaveshwaranagar",
      "amenity": "college",
      "name": "Zee Institute of Creative Arts",
      "operator": "Zee",
      "phone": "+91 80 66490571"
    }
  },
  {
    "id": 2514705834,
    "type": "node",
    "category": "schools",
    "name": "Chandra Gymkhana Institute",
    "lat": 12.960893,
    "lon": 77.527289,
    "tags": {
      "addr:city": "Bangalore",
      "addr:street": "4th Main Road",
      "amenity": "college",
      "name": "Chandra Gymkhana Institute"
    }
  },
  {
    "id": 2523956870,
    "type": "node",
    "category": "schools",
    "name": "New Baldwin School",
    "lat": 12.932282,
    "lon": 77.598131,
    "tags": {
      "addr:city": "Bengaluru",
      "amenity": "school",
      "name": "New Baldwin School"
    }
  },
  {
    "id": 2537637890,
    "type": "node",
    "category": "schools",
    "name": "CMS",
    "lat": 12.979767,
    "lon": 77.585809,
    "tags": {
      "amenity": "college",
      "name": "CMS"
    }
  },
  {
    "id": 2577218151,
    "type": "node",
    "category": "schools",
    "name": "Government School",
    "lat": 12.966995,
    "lon": 77.591066,
    "tags": {
      "amenity": "school",
      "name": "Government School"
    }
  },
  {
    "id": 2641946757,
    "type": "node",
    "category": "schools",
    "name": "Soundarya Institute of Management",
    "lat": 13.070667,
    "lon": 77.493983,
    "tags": {
      "amenity": "school",
      "name": "Soundarya Institute of Management"
    }
  },
  {
    "id": 2665993754,
    "type": "node",
    "category": "schools",
    "name": "UAS School",
    "lat": 13.029252,
    "lon": 77.582949,
    "tags": {
      "amenity": "school",
      "name": "UAS School"
    }
  },
  {
    "id": 2677285854,
    "type": "node",
    "category": "schools",
    "name": "Ekya School",
    "lat": 12.907666,
    "lon": 77.596728,
    "tags": {
      "amenity": "school",
      "name": "Ekya School"
    }
  },
  {
    "id": 2720498307,
    "type": "node",
    "category": "schools",
    "name": "Sri Ram Driving School",
    "lat": 12.900349,
    "lon": 77.62713,
    "tags": {
      "amenity": "school",
      "name": "Sri Ram Driving School"
    }
  },
  {
    "id": 2855634916,
    "type": "node",
    "category": "schools",
    "name": "Aradhana Academy",
    "lat": 12.884702,
    "lon": 77.59175,
    "tags": {
      "amenity": "school",
      "name": "Aradhana Academy"
    }
  },
  {
    "id": 2892761118,
    "type": "node",
    "category": "schools",
    "name": "New Arvind Memorial School",
    "lat": 12.894759,
    "lon": 77.615007,
    "tags": {
      "amenity": "school",
      "name": "New Arvind Memorial School",
      "operator": "Private Un-Aided"
    }
  },
  {
    "id": 2907073150,
    "type": "node",
    "category": "schools",
    "name": "St Teresa Hps Begur",
    "lat": 12.873025,
    "lon": 77.626013,
    "tags": {
      "addr:city": "Begur",
      "amenity": "school",
      "name": "St Teresa Hps Begur",
      "operator": "Department of Education"
    }
  },
  {
    "id": 2907073152,
    "type": "node",
    "category": "schools",
    "name": "St Teresa Hs",
    "lat": 12.873751,
    "lon": 77.625934,
    "tags": {
      "amenity": "school",
      "name": "St Teresa Hs",
      "operator": "Private Un-Aided"
    }
  },
  {
    "id": 2975331590,
    "type": "node",
    "category": "schools",
    "name": "Udaya School",
    "lat": 12.970074,
    "lon": 77.536184,
    "tags": {
      "amenity": "school",
      "name": "Udaya School"
    }
  },
  {
    "id": 2996236148,
    "type": "node",
    "category": "schools",
    "name": "Carmel School Ground",
    "lat": 12.924222,
    "lon": 77.518945,
    "tags": {
      "amenity": "school",
      "name": "Carmel School Ground"
    }
  },
  {
    "id": 3001237835,
    "type": "node",
    "category": "schools",
    "name": "Divecha Centre for Climate Change",
    "lat": 13.019255,
    "lon": 77.570725,
    "tags": {
      "amenity": "college",
      "name": "Divecha Centre for Climate Change"
    }
  },
  {
    "id": 3016090370,
    "type": "node",
    "category": "schools",
    "name": "St. Marks School",
    "lat": 12.914516,
    "lon": 77.598787,
    "tags": {
      "amenity": "school",
      "name": "St. Marks School"
    }
  },
  {
    "id": 3017485739,
    "type": "node",
    "category": "schools",
    "name": "Rajarajeshwari School",
    "lat": 13.061095,
    "lon": 77.554068,
    "tags": {
      "amenity": "school",
      "name": "Rajarajeshwari School"
    }
  },
  {
    "id": 3057166709,
    "type": "node",
    "category": "schools",
    "name": "KKN coaching classes",
    "lat": 12.938764,
    "lon": 77.551167,
    "tags": {
      "amenity": "school",
      "name": "KKN coaching classes"
    }
  },
  {
    "id": 3205834304,
    "type": "node",
    "category": "schools",
    "name": "Unnamed School",
    "lat": 12.959651,
    "lon": 77.702673,
    "tags": {
      "amenity": "school"
    }
  },
  {
    "id": 3212034803,
    "type": "node",
    "category": "schools",
    "name": "Amaravathy PU College",
    "lat": 12.88727,
    "lon": 77.581785,
    "tags": {
      "amenity": "college",
      "name": "Amaravathy PU College"
    }
  },
  {
    "id": 3214264917,
    "type": "node",
    "category": "schools",
    "name": "The Oxford College of Engineering",
    "lat": 12.902052,
    "lon": 77.631261,
    "tags": {
      "amenity": "college",
      "name": "The Oxford College of Engineering"
    }
  },
  {
    "id": 3214435257,
    "type": "node",
    "category": "schools",
    "name": "SJB Institute of Technology",
    "lat": 12.899054,
    "lon": 77.496307,
    "tags": {
      "amenity": "college",
      "name": "SJB Institute of Technology",
      "phone": "08028612445",
      "website": "https://www.sjbit.edu.in/"
    }
  },
  {
    "id": 3214475140,
    "type": "node",
    "category": "schools",
    "name": "BNM Institute of Technology",
    "lat": 12.921883,
    "lon": 77.567593,
    "tags": {
      "addr:city": "Bengaluru",
      "amenity": "college",
      "name": "BNM Institute of Technology",
      "phone": "08026711781",
      "website": "https://www.bnmit.org/"
    }
  },
  {
    "id": 3240751149,
    "type": "node",
    "category": "schools",
    "name": "JAAGA Bootcamp",
    "lat": 12.876658,
    "lon": 77.724268,
    "tags": {
      "amenity": "school",
      "name": "JAAGA Bootcamp"
    }
  },
  {
    "id": 3264822806,
    "type": "node",
    "category": "schools",
    "name": "Good To Excellence",
    "lat": 12.916773,
    "lon": 77.6111,
    "tags": {
      "amenity": "school",
      "name": "Good To Excellence"
    }
  },
  {
    "id": 3280224386,
    "type": "node",
    "category": "schools",
    "name": "IBS business school",
    "lat": 12.8982,
    "lon": 77.464077,
    "tags": {
      "amenity": "school",
      "name": "IBS business school"
    }
  },
  {
    "id": 3369957259,
    "type": "node",
    "category": "schools",
    "name": "Kairalee Nikethan Education Trust",
    "lat": 12.97927,
    "lon": 77.639368,
    "tags": {
      "amenity": "college",
      "name": "Kairalee Nikethan Education Trust"
    }
  },
  {
    "id": 3370094147,
    "type": "node",
    "category": "schools",
    "name": "Casa de Bambeino Montessori",
    "lat": 12.978006,
    "lon": 77.643174,
    "tags": {
      "amenity": "school",
      "name": "Casa de Bambeino Montessori"
    }
  },
  {
    "id": 3370167135,
    "type": "node",
    "category": "schools",
    "name": "DQ Labs",
    "lat": 12.973745,
    "lon": 77.641586,
    "tags": {
      "amenity": "school",
      "name": "DQ Labs"
    }
  },
  {
    "id": 3370279041,
    "type": "node",
    "category": "schools",
    "name": "CNK Reddy College of Business Management.",
    "lat": 12.977025,
    "lon": 77.636253,
    "tags": {
      "addr:street": "Indiranagar Double Road (Paramahansa Yogananda road)",
      "amenity": "school",
      "name": "CNK Reddy College of Business Management."
    }
  },
  {
    "id": 3374315087,
    "type": "node",
    "category": "schools",
    "name": "K M J College Of Nursing.",
    "lat": 12.977444,
    "lon": 77.636747,
    "tags": {
      "amenity": "college",
      "name": "K M J College Of Nursing."
    }
  },
  {
    "id": 3377391054,
    "type": "node",
    "category": "schools",
    "name": "The Oxford Secondary School",
    "lat": 12.90983,
    "lon": 77.581185,
    "tags": {
      "amenity": "school",
      "name": "The Oxford Secondary School"
    }
  },
  {
    "id": 3389094364,
    "type": "node",
    "category": "schools",
    "name": "Business Excellence Institute",
    "lat": 12.982474,
    "lon": 77.638101,
    "tags": {
      "amenity": "college",
      "name": "Business Excellence Institute"
    }
  },
  {
    "id": 3393457970,
    "type": "node",
    "category": "schools",
    "name": "The Oxford College of Hotel Management",
    "lat": 12.909696,
    "lon": 77.580849,
    "tags": {
      "amenity": "college",
      "name": "The Oxford College of Hotel Management"
    }
  },
  {
    "id": 3393457971,
    "type": "node",
    "category": "schools",
    "name": "The Oxford Pre-University College",
    "lat": 12.909801,
    "lon": 77.580847,
    "tags": {
      "amenity": "college",
      "name": "The Oxford Pre-University College"
    }
  },
  {
    "id": 3393457972,
    "type": "node",
    "category": "schools",
    "name": "The Oxford English School",
    "lat": 12.909513,
    "lon": 77.581249,
    "tags": {
      "amenity": "school",
      "name": "The Oxford English School"
    }
  },
  {
    "id": 3393457974,
    "type": "node",
    "category": "schools",
    "name": "The Oxford Senior Secondary School",
    "lat": 12.90983,
    "lon": 77.581254,
    "tags": {
      "amenity": "school",
      "name": "The Oxford Senior Secondary School"
    }
  },
  {
    "id": 3393458919,
    "type": "node",
    "category": "schools",
    "name": "The Oxford Evening Polytechnic",
    "lat": 12.909534,
    "lon": 77.580847,
    "tags": {
      "amenity": "college",
      "name": "The Oxford Evening Polytechnic"
    }
  },
  {
    "id": 3393458920,
    "type": "node",
    "category": "schools",
    "name": "The Oxford Polytechnic",
    "lat": 12.909853,
    "lon": 77.580847,
    "tags": {
      "amenity": "college",
      "name": "The Oxford Polytechnic"
    }
  },
  {
    "id": 3393478954,
    "type": "node",
    "category": "schools",
    "name": "The Oxford Primary School",
    "lat": 12.910082,
    "lon": 77.581513,
    "tags": {
      "amenity": "school",
      "name": "The Oxford Primary School"
    }
  },
  {
    "id": 3451676381,
    "type": "node",
    "category": "schools",
    "name": "Kannada Government School",
    "lat": 12.994993,
    "lon": 77.663503,
    "tags": {
      "amenity": "school",
      "name": "Kannada Government School"
    }
  },
  {
    "id": 3453556782,
    "type": "node",
    "category": "schools",
    "name": "Bangalore Montessori High School",
    "lat": 12.956195,
    "lon": 77.637614,
    "tags": {
      "amenity": "school",
      "name": "Bangalore Montessori High School"
    }
  },
  {
    "id": 3453556790,
    "type": "node",
    "category": "schools",
    "name": "K.R.L.S. Patel Rama Reddy English High School",
    "lat": 12.955233,
    "lon": 77.6374,
    "tags": {
      "amenity": "school",
      "name": "K.R.L.S. Patel Rama Reddy English High School"
    }
  },
  {
    "id": 3463769188,
    "type": "node",
    "category": "schools",
    "name": "Eye Level Learning Center",
    "lat": 12.941958,
    "lon": 77.622786,
    "tags": {
      "amenity": "school",
      "name": "Eye Level Learning Center"
    }
  },
  {
    "id": 3541202424,
    "type": "node",
    "category": "schools",
    "name": "Nammura Government Model Primary School",
    "lat": 13.035347,
    "lon": 77.526317,
    "tags": {
      "amenity": "school",
      "name": "Nammura Government Model Primary School"
    }
  },
  {
    "id": 3546831488,
    "type": "node",
    "category": "schools",
    "name": "BET Convent",
    "lat": 12.920953,
    "lon": 77.521301,
    "tags": {
      "amenity": "school",
      "name": "BET Convent"
    }
  },
  {
    "id": 3556214254,
    "type": "node",
    "category": "schools",
    "name": "FFE IT - Foundation for excellence india trust",
    "lat": 12.980141,
    "lon": 77.637495,
    "tags": {
      "amenity": "university",
      "name": "FFE IT - Foundation for excellence india trust"
    }
  },
  {
    "id": 3556214255,
    "type": "node",
    "category": "schools",
    "name": "Info Era - Software training institute",
    "lat": 12.980174,
    "lon": 77.637286,
    "tags": {
      "amenity": "school",
      "name": "Info Era - Software training institute"
    }
  },
  {
    "id": 3691475331,
    "type": "node",
    "category": "schools",
    "name": "Urban DIET",
    "lat": 12.931359,
    "lon": 77.513577,
    "tags": {
      "addr:city": "Bengaluru",
      "addr:street": "Kenchenahalli Main Road",
      "amenity": "college",
      "name": "Urban DIET",
      "operator": "Government"
    }
  },
  {
    "id": 3702280940,
    "type": "node",
    "category": "schools",
    "name": "Iqra International School, Bangalore",
    "lat": 12.917568,
    "lon": 77.614393,
    "tags": {
      "amenity": "college",
      "name": "Iqra International School, Bangalore"
    }
  },
  {
    "id": 3702281012,
    "type": "node",
    "category": "schools",
    "name": "Wisdom International School",
    "lat": 12.919599,
    "lon": 77.608563,
    "tags": {
      "amenity": "college",
      "name": "Wisdom International School"
    }
  },
  {
    "id": 4004502433,
    "type": "node",
    "category": "schools",
    "name": "S Cadambi Pre University College",
    "lat": 12.993765,
    "lon": 77.539322,
    "tags": {
      "amenity": "college",
      "name": "S Cadambi Pre University College"
    }
  },
  {
    "id": 4062014291,
    "type": "node",
    "category": "schools",
    "name": "Srs English Nursery School",
    "lat": 12.948222,
    "lon": 77.59909,
    "tags": {
      "amenity": "school",
      "name": "Srs English Nursery School"
    }
  },
  {
    "id": 4101616565,
    "type": "node",
    "category": "schools",
    "name": "Rose of Sharon Nursery School",
    "lat": 12.979063,
    "lon": 77.643919,
    "tags": {
      "amenity": "school",
      "name": "Rose of Sharon Nursery School"
    }
  },
  {
    "id": 4101957726,
    "type": "node",
    "category": "schools",
    "name": "Rakum school for blind",
    "lat": 12.979295,
    "lon": 77.643391,
    "tags": {
      "amenity": "school",
      "name": "Rakum school for blind"
    }
  },
  {
    "id": 4104411468,
    "type": "node",
    "category": "schools",
    "name": "Agricultural Engineering",
    "lat": 13.078822,
    "lon": 77.571781,
    "tags": {
      "amenity": "college",
      "name": "Agricultural Engineering"
    }
  },
  {
    "id": 4130960995,
    "type": "node",
    "category": "schools",
    "name": "Government School",
    "lat": 12.96157,
    "lon": 77.580453,
    "tags": {
      "amenity": "school",
      "name": "Government School"
    }
  },
  {
    "id": 4135046589,
    "type": "node",
    "category": "schools",
    "name": "Shantiniketan English High School, B M P 64",
    "lat": 12.914711,
    "lon": 77.602493,
    "tags": {
      "addr:street": "1st Main",
      "amenity": "school",
      "name": "Shantiniketan English High School, B M P 64",
      "operator": "Private Un-Aided"
    }
  },
  {
    "id": 4171468392,
    "type": "node",
    "category": "schools",
    "name": "Government Primary School",
    "lat": 12.981418,
    "lon": 77.665956,
    "tags": {
      "amenity": "school",
      "name": "Government Primary School"
    }
  },
  {
    "id": 4194065600,
    "type": "node",
    "category": "schools",
    "name": "Godwin English School",
    "lat": 12.966526,
    "lon": 77.56709,
    "tags": {
      "amenity": "school",
      "name": "Godwin English School",
      "opening_hours": "Mo-Sa 08:00-16:00"
    }
  },
  {
    "id": 4219746730,
    "type": "node",
    "category": "schools",
    "name": "Department of Computational and Data Sciences",
    "lat": 13.016568,
    "lon": 77.570952,
    "tags": {
      "amenity": "college",
      "name": "Department of Computational and Data Sciences"
    }
  },
  {
    "id": 4219746731,
    "type": "node",
    "category": "schools",
    "name": "Supercomputer Education and Research Centre",
    "lat": 13.016558,
    "lon": 77.570732,
    "tags": {
      "amenity": "college",
      "name": "Supercomputer Education and Research Centre"
    }
  },
  {
    "id": 4272686491,
    "type": "node",
    "category": "schools",
    "name": "The Study",
    "lat": 12.849958,
    "lon": 77.506055,
    "tags": {
      "amenity": "school",
      "name": "The Study",
      "website": "https://thevalleyschool.info/"
    }
  },
  {
    "id": 4279512889,
    "type": "node",
    "category": "schools",
    "name": "Little Aryans",
    "lat": 12.88199,
    "lon": 77.582555,
    "tags": {
      "addr:street": "2nd Main Road",
      "amenity": "school",
      "name": "Little Aryans"
    }
  },
  {
    "id": 4292885994,
    "type": "node",
    "category": "schools",
    "name": "Reliance",
    "lat": 12.958191,
    "lon": 77.61694,
    "tags": {
      "amenity": "school",
      "name": "Reliance"
    }
  },
  {
    "id": 4307201089,
    "type": "node",
    "category": "schools",
    "name": "M S Ramaiah University of Applied Sciences",
    "lat": 13.018475,
    "lon": 77.509102,
    "tags": {
      "addr:street": "3rd main road",
      "amenity": "school",
      "name": "M S Ramaiah University of Applied Sciences",
      "phone": "+918045366666",
      "website": "https://www.msruas.ac.in/"
    }
  },
  {
    "id": 4307640439,
    "type": "node",
    "category": "schools",
    "name": "Presidency University",
    "lat": 12.965588,
    "lon": 77.603638,
    "tags": {
      "amenity": "college",
      "name": "Presidency University"
    }
  },
  {
    "id": 4368861091,
    "type": "node",
    "category": "schools",
    "name": "Stracey Memorial Composite PU College",
    "lat": 12.974863,
    "lon": 77.602134,
    "tags": {
      "amenity": "college",
      "name": "Stracey Memorial Composite PU College"
    }
  },
  {
    "id": 4377743080,
    "type": "node",
    "category": "schools",
    "name": "GHPS Yellukunte",
    "lat": 12.905648,
    "lon": 77.641476,
    "tags": {
      "amenity": "school",
      "name": "GHPS Yellukunte",
      "operator": "Department of Primary and Secondary Education"
    }
  },
  {
    "id": 4386500114,
    "type": "node",
    "category": "schools",
    "name": "Marian Kids",
    "lat": 13.026938,
    "lon": 77.604164,
    "tags": {
      "amenity": "school",
      "name": "Marian Kids"
    }
  },
  {
    "id": 4386500119,
    "type": "node",
    "category": "schools",
    "name": "Mona Nursery, Primary and High School",
    "lat": 13.027625,
    "lon": 77.604371,
    "tags": {
      "amenity": "school",
      "name": "Mona Nursery, Primary and High School"
    }
  },
  {
    "id": 4417326240,
    "type": "node",
    "category": "schools",
    "name": "Vagdevi Vilas super school",
    "lat": 12.945806,
    "lon": 77.710759,
    "tags": {
      "amenity": "school",
      "name": "Vagdevi Vilas super school"
    }
  },
  {
    "id": 4422388399,
    "type": "node",
    "category": "schools",
    "name": "Indus Valley School",
    "lat": 13.020766,
    "lon": 77.705481,
    "tags": {
      "addr:street": "Thambuchettypalya Main Road",
      "amenity": "school",
      "name": "Indus Valley School"
    }
  },
  {
    "id": 4443782275,
    "type": "node",
    "category": "schools",
    "name": "Government Higher Primary School Devarabisanahalli",
    "lat": 12.923653,
    "lon": 77.691495,
    "tags": {
      "addr:city": "Bengaluru",
      "addr:street": "Panathur, Chandana, Devarabisanahalli, Bellandur,",
      "amenity": "school",
      "name": "Government Higher Primary School Devarabisanahalli",
      "operator": "Panathur"
    }
  },
  {
    "id": 4444314218,
    "type": "node",
    "category": "schools",
    "name": "Greenvalley high school",
    "lat": 12.892048,
    "lon": 77.5719,
    "tags": {
      "addr:city": "bengaluru",
      "addr:street": "Jakkana Kuppe Village",
      "amenity": "school",
      "name": "Greenvalley high school"
    }
  },
  {
    "id": 4445144989,
    "type": "node",
    "category": "schools",
    "name": "Hani Foundation Montessori",
    "lat": 12.886799,
    "lon": 77.567503,
    "tags": {
      "addr:street": "Konanakunte-Uttarahalli Road",
      "amenity": "school",
      "name": "Hani Foundation Montessori"
    }
  },
  {
    "id": 4445177902,
    "type": "node",
    "category": "schools",
    "name": "Sri Chaitanya Techno School",
    "lat": 12.913853,
    "lon": 77.542693,
    "tags": {
      "addr:city": "BANGALORE",
      "addr:street": "Banashankari 3rd Stage, Ramanjaneyanagar, Chikka Kalsandra, Arehalli, Uttarahalli Hobli",
      "amenity": "school",
      "name": "Sri Chaitanya Techno School"
    }
  },
  {
    "id": 4445183051,
    "type": "node",
    "category": "schools",
    "name": "Narayana e-Techno School",
    "lat": 12.896322,
    "lon": 77.57848,
    "tags": {
      "addr:city": "BANGALORE",
      "addr:street": "Near R N S Motors, GB Palya, Hosur Road, Near Bommanahalli Signal, Bommasandra Industrial Area",
      "amenity": "school",
      "name": "Narayana e-Techno School",
      "phone": "+9170222 93935",
      "website": "narayanaetechnoschools.com"
    }
  },
  {
    "id": 4445697807,
    "type": "node",
    "category": "schools",
    "name": "Chrysalis Kids",
    "lat": 12.96407,
    "lon": 77.749541,
    "tags": {
      "addr:city": "bangalore",
      "addr:street": "Sita Lakshmi ITPL Rd, AECS Layout - A Block, AECS Layout, Brookefield",
      "amenity": "school",
      "name": "Chrysalis Kids",
      "phone": "+9189515 11406",
      "website": "https://chrysaliskids.com/"
    }
  },
  {
    "id": 4445860418,
    "type": "node",
    "category": "schools",
    "name": "East West Academy",
    "lat": 12.983486,
    "lon": 77.551557,
    "tags": {
      "addr:city": "Bangalore",
      "addr:street": "Near Bhashyam Circle Beauty Spot Park, 63rd & 64th Cross, 5th Block, Rajajinagar",
      "amenity": "school",
      "name": "East West Academy",
      "phone": "+91080 2315 7577",
      "website": "eastwestacademy.in"
    }
  },
  {
    "id": 4447006477,
    "type": "node",
    "category": "schools",
    "name": "High School",
    "lat": 12.92157,
    "lon": 77.663301,
    "tags": {
      "addr:city": "Bengaluru",
      "addr:street": "Agara Post, Sarjapur Main Rd, Iblur Village, Bellandur",
      "amenity": "school",
      "name": "High School",
      "operator": "Government Higher Primary School"
    }
  },
  {
    "id": 4447105943,
    "type": "node",
    "category": "schools",
    "name": "Government Higher Primary School",
    "lat": 12.936988,
    "lon": 77.687589,
    "tags": {
      "addr:street": "Panathur, Chandana, Bengaluru karnataka",
      "amenity": "school",
      "name": "Government Higher Primary School"
    }
  },
  {
    "id": 4447521452,
    "type": "node",
    "category": "schools",
    "name": "Traffic Police Station",
    "lat": 12.981606,
    "lon": 77.534667,
    "tags": {
      "addr:city": "Bangalore",
      "addr:street": "4th Main Rd, KHB Colony, Basaveshwar Nagar,",
      "amenity": "school",
      "name": "Traffic Police Station",
      "phone": "NA",
      "website": "NA"
    }
  },
  {
    "id": 4447535055,
    "type": "node",
    "category": "schools",
    "name": "Traffic Police Station Kamakshipalya",
    "lat": 12.987971,
    "lon": 77.540223,
    "tags": {
      "addr:city": "Banglore",
      "addr:street": "4th Main Rd, KHB Colony, Basaveshwar Nagar,",
      "amenity": "school",
      "name": "Traffic Police Station Kamakshipalya",
      "phone": "NA",
      "website": "NA"
    }
  },
  {
    "id": 4450210197,
    "type": "node",
    "category": "schools",
    "name": "MVJ PU College",
    "lat": 12.923766,
    "lon": 77.569657,
    "tags": {
      "addr:city": "Bangalore",
      "addr:street": "24th Cross Road",
      "amenity": "college",
      "name": "MVJ PU College"
    }
  },
  {
    "id": 4456223691,
    "type": "node",
    "category": "schools",
    "name": "CMS Business School, Jain University",
    "lat": 12.903047,
    "lon": 77.585158,
    "tags": {
      "addr:street": "17th Cross Road",
      "amenity": "school",
      "name": "CMS Business School, Jain University",
      "opening_hours": "Mo-Fr 09:00-17:00",
      "phone": "+91 80 4343 0400",
      "website": "http://www.bschool.cms.ac.in"
    }
  },
  {
    "id": 4456280292,
    "type": "node",
    "category": "schools",
    "name": "RMS International School",
    "lat": 12.892239,
    "lon": 77.565548,
    "tags": {
      "amenity": "school",
      "name": "RMS International School"
    }
  },
  {
    "id": 4456338990,
    "type": "node",
    "category": "schools",
    "name": "NIIT",
    "lat": 12.89157,
    "lon": 77.565263,
    "tags": {
      "addr:street": "Kanakapura Road",
      "amenity": "school",
      "name": "NIIT"
    }
  },
  {
    "id": 4463206796,
    "type": "node",
    "category": "schools",
    "name": "Bright Way School",
    "lat": 12.905333,
    "lon": 77.55332,
    "tags": {
      "addr:street": "12th main road , BHCS layout",
      "amenity": "school",
      "name": "Bright Way School",
      "opening_hours": "Mo-Sa 08:00-16:00"
    }
  },
  {
    "id": 4472371591,
    "type": "node",
    "category": "schools",
    "name": "Sri Ravishankar Vidya Mandir",
    "lat": 12.970381,
    "lon": 77.652275,
    "tags": {
      "amenity": "school",
      "name": "Sri Ravishankar Vidya Mandir"
    }
  },
  {
    "id": 4474702395,
    "type": "node",
    "category": "schools",
    "name": "Government Primary School",
    "lat": 12.94599,
    "lon": 77.671936,
    "tags": {
      "amenity": "school",
      "name": "Government Primary School"
    }
  },
  {
    "id": 4474824189,
    "type": "node",
    "category": "schools",
    "name": "Prasad Vidya Mandir",
    "lat": 12.947427,
    "lon": 77.680875,
    "tags": {
      "amenity": "school",
      "name": "Prasad Vidya Mandir"
    }
  },
  {
    "id": 4474836390,
    "type": "node",
    "category": "schools",
    "name": "Prasad Vidya Mandir",
    "lat": 12.948026,
    "lon": 77.681756,
    "tags": {
      "amenity": "school",
      "name": "Prasad Vidya Mandir"
    }
  },
  {
    "id": 4477057217,
    "type": "node",
    "category": "schools",
    "name": "Allen Career Institute",
    "lat": 12.985385,
    "lon": 77.54443,
    "tags": {
      "addr:city": "Bangalore",
      "addr:street": "1st Main Basaveshwaranagar",
      "amenity": "college",
      "name": "Allen Career Institute",
      "website": "https://www.allen.ac.in/"
    }
  },
  {
    "id": 4477057221,
    "type": "node",
    "category": "schools",
    "name": "Indian High School",
    "lat": 12.993811,
    "lon": 77.545866,
    "tags": {
      "amenity": "school",
      "name": "Indian High School"
    }
  },
  {
    "id": 4512052990,
    "type": "node",
    "category": "schools",
    "name": "Dr Ambedkar Nursery Primary & High School",
    "lat": 12.962411,
    "lon": 77.64818,
    "tags": {
      "amenity": "school",
      "name": "Dr Ambedkar Nursery Primary & High School"
    }
  },
  {
    "id": 4512115990,
    "type": "node",
    "category": "schools",
    "name": "Mother Mary English School",
    "lat": 12.976128,
    "lon": 77.652898,
    "tags": {
      "amenity": "school",
      "name": "Mother Mary English School"
    }
  },
  {
    "id": 4512140989,
    "type": "node",
    "category": "schools",
    "name": "St. Thomas Public School",
    "lat": 12.975924,
    "lon": 77.652665,
    "tags": {
      "amenity": "school",
      "name": "St. Thomas Public School"
    }
  },
  {
    "id": 4516825791,
    "type": "node",
    "category": "schools",
    "name": "Prajawal Nursing school",
    "lat": 12.985358,
    "lon": 77.479173,
    "tags": {
      "addr:street": "Magadi Road",
      "amenity": "school",
      "name": "Prajawal Nursing school"
    }
  },
  {
    "id": 4541383689,
    "type": "node",
    "category": "schools",
    "name": "Government school",
    "lat": 12.984899,
    "lon": 77.481238,
    "tags": {
      "amenity": "school",
      "name": "Government school"
    }
  },
  {
    "id": 4602997690,
    "type": "node",
    "category": "schools",
    "name": "Government Primary School",
    "lat": 12.974148,
    "lon": 77.651323,
    "tags": {
      "addr:street": "Rama Temple Road",
      "amenity": "school",
      "name": "Government Primary School"
    }
  },
  {
    "id": 4607641672,
    "type": "node",
    "category": "schools",
    "name": "Kumon Education Center",
    "lat": 13.004286,
    "lon": 77.548886,
    "tags": {
      "amenity": "school",
      "name": "Kumon Education Center"
    }
  },
  {
    "id": 4679825893,
    "type": "node",
    "category": "schools",
    "name": "Brindavan College",
    "lat": 13.044455,
    "lon": 77.58017,
    "tags": {
      "addr:city": "Bhoopasandra",
      "addr:street": "Cross Road",
      "amenity": "college",
      "name": "Brindavan College"
    }
  },
  {
    "id": 4697854891,
    "type": "node",
    "category": "schools",
    "name": "Kingston school",
    "lat": 13.026474,
    "lon": 77.599251,
    "tags": {
      "amenity": "school",
      "name": "Kingston school"
    }
  },
  {
    "id": 4701113489,
    "type": "node",
    "category": "schools",
    "name": "ಶ್ರೀ ಕೃಷ್ಣ ಪಿ ಯು ಕಾಲೇಜು",
    "lat": 12.931401,
    "lon": 77.557746,
    "tags": {
      "amenity": "school",
      "name": "ಶ್ರೀ ಕೃಷ್ಣ ಪಿ ಯು ಕಾಲೇಜು"
    }
  },
  {
    "id": 4702606094,
    "type": "node",
    "category": "schools",
    "name": "Government School",
    "lat": 12.876302,
    "lon": 77.603061,
    "tags": {
      "amenity": "school",
      "name": "Government School"
    }
  },
  {
    "id": 4714399093,
    "type": "node",
    "category": "schools",
    "name": "Government School",
    "lat": 12.878208,
    "lon": 77.60261,
    "tags": {
      "amenity": "school",
      "name": "Government School"
    }
  },
  {
    "id": 4714437394,
    "type": "node",
    "category": "schools",
    "name": "Lords School",
    "lat": 12.877144,
    "lon": 77.602115,
    "tags": {
      "amenity": "school",
      "name": "Lords School"
    }
  },
  {
    "id": 4843100425,
    "type": "node",
    "category": "schools",
    "name": "Cambridge School",
    "lat": 12.958824,
    "lon": 77.593618,
    "tags": {
      "amenity": "school",
      "name": "Cambridge School"
    }
  },
  {
    "id": 4844863355,
    "type": "node",
    "category": "schools",
    "name": "BKS",
    "lat": 12.983464,
    "lon": 77.613596,
    "tags": {
      "amenity": "school",
      "name": "BKS"
    }
  },
  {
    "id": 4846789824,
    "type": "node",
    "category": "schools",
    "name": "Purvankara academy of excellence",
    "lat": 12.974946,
    "lon": 77.619754,
    "tags": {
      "amenity": "school",
      "name": "Purvankara academy of excellence"
    }
  },
  {
    "id": 4849094830,
    "type": "node",
    "category": "schools",
    "name": "Driving school for all types of cars",
    "lat": 12.947972,
    "lon": 77.593741,
    "tags": {
      "amenity": "school",
      "name": "Driving school for all types of cars"
    }
  },
  {
    "id": 4849575711,
    "type": "node",
    "category": "schools",
    "name": "Govt. Urdu English Medium High School",
    "lat": 12.944723,
    "lon": 77.594589,
    "tags": {
      "amenity": "school",
      "name": "Govt. Urdu English Medium High School"
    }
  },
  {
    "id": 4851692297,
    "type": "node",
    "category": "schools",
    "name": "St George High School",
    "lat": 13.031143,
    "lon": 77.669185,
    "tags": {
      "amenity": "school",
      "name": "St George High School"
    }
  },
  {
    "id": 4851692299,
    "type": "node",
    "category": "schools",
    "name": "Sunshine Childrens Home and School",
    "lat": 13.030981,
    "lon": 77.668221,
    "tags": {
      "amenity": "school",
      "name": "Sunshine Childrens Home and School"
    }
  },
  {
    "id": 4859555724,
    "type": "node",
    "category": "schools",
    "name": "Unnamed School",
    "lat": 12.929009,
    "lon": 77.58941,
    "tags": {
      "amenity": "school"
    }
  },
  {
    "id": 4987609421,
    "type": "node",
    "category": "schools",
    "name": "Vbr pu college",
    "lat": 13.03269,
    "lon": 77.630523,
    "tags": {
      "amenity": "college",
      "name": "Vbr pu college"
    }
  },
  {
    "id": 5080786067,
    "type": "node",
    "category": "schools",
    "name": "Unnamed School",
    "lat": 13.006508,
    "lon": 77.645274,
    "tags": {
      "amenity": "school"
    }
  },
  {
    "id": 5080801905,
    "type": "node",
    "category": "schools",
    "name": "Unnamed School",
    "lat": 13.008591,
    "lon": 77.64736,
    "tags": {
      "amenity": "school"
    }
  },
  {
    "id": 5103929761,
    "type": "node",
    "category": "schools",
    "name": "Rays Academy For Learning",
    "lat": 12.893884,
    "lon": 77.556381,
    "tags": {
      "amenity": "school",
      "name": "Rays Academy For Learning"
    }
  },
  {
    "id": 5157373778,
    "type": "node",
    "category": "schools",
    "name": "Government First Grade College",
    "lat": 12.993369,
    "lon": 77.552821,
    "tags": {
      "amenity": "college",
      "name": "Government First Grade College"
    }
  },
  {
    "id": 5165419321,
    "type": "node",
    "category": "schools",
    "name": "Footprints Preschool and Daycare",
    "lat": 12.979593,
    "lon": 77.750699,
    "tags": {
      "addr:street": "Whitefield Main Road",
      "amenity": "school",
      "name": "Footprints Preschool and Daycare",
      "opening_hours": "Mo-Fr 09:00-18:30",
      "operator": "Footprints",
      "phone": "9654999677",
      "website": "https://www.footprintseducation.in/"
    }
  },
  {
    "id": 5193916611,
    "type": "node",
    "category": "schools",
    "name": "Kinder Castle",
    "lat": 12.977175,
    "lon": 77.646499,
    "tags": {
      "amenity": "school",
      "name": "Kinder Castle"
    }
  },
  {
    "id": 5248946022,
    "type": "node",
    "category": "schools",
    "name": "Dhurii",
    "lat": 12.969038,
    "lon": 77.648342,
    "tags": {
      "addr:street": "Jeevan Bhima Nagar 10th Main Road",
      "amenity": "school",
      "name": "Dhurii"
    }
  },
  {
    "id": 5259390022,
    "type": "node",
    "category": "schools",
    "name": "Kinto School",
    "lat": 12.962989,
    "lon": 77.551268,
    "tags": {
      "amenity": "school",
      "name": "Kinto School"
    }
  },
  {
    "id": 5259390023,
    "type": "node",
    "category": "schools",
    "name": "Kinto High School",
    "lat": 12.961094,
    "lon": 77.546867,
    "tags": {
      "amenity": "school",
      "name": "Kinto High School"
    }
  },
  {
    "id": 5259394922,
    "type": "node",
    "category": "schools",
    "name": "Jawahar School",
    "lat": 12.963485,
    "lon": 77.552947,
    "tags": {
      "amenity": "school",
      "name": "Jawahar School"
    }
  },
  {
    "id": 5261480850,
    "type": "node",
    "category": "schools",
    "name": "Lakshya Public School",
    "lat": 12.896723,
    "lon": 77.723475,
    "tags": {
      "amenity": "school",
      "name": "Lakshya Public School"
    }
  },
  {
    "id": 5304601862,
    "type": "node",
    "category": "schools",
    "name": "MediBase",
    "lat": 12.936613,
    "lon": 77.548368,
    "tags": {
      "amenity": "school",
      "name": "MediBase"
    }
  },
  {
    "id": 5304601865,
    "type": "node",
    "category": "schools",
    "name": "KKN coaching classes",
    "lat": 12.936958,
    "lon": 77.548622,
    "tags": {
      "amenity": "school",
      "name": "KKN coaching classes"
    }
  },
  {
    "id": 5306751760,
    "type": "node",
    "category": "schools",
    "name": "Raghav's Coaching Centre",
    "lat": 12.952357,
    "lon": 77.577364,
    "tags": {
      "amenity": "school",
      "name": "Raghav's Coaching Centre"
    }
  },
  {
    "id": 5348591335,
    "type": "node",
    "category": "schools",
    "name": "Janana Deepthi School",
    "lat": 12.940807,
    "lon": 77.541677,
    "tags": {
      "amenity": "school",
      "name": "Janana Deepthi School"
    }
  },
  {
    "id": 5623433276,
    "type": "node",
    "category": "schools",
    "name": "Rajajinagar PU Degree College",
    "lat": 12.984877,
    "lon": 77.555988,
    "tags": {
      "amenity": "college",
      "name": "Rajajinagar PU Degree College"
    }
  },
  {
    "id": 5738230321,
    "type": "node",
    "category": "schools",
    "name": "Holy Shepherd English High School",
    "lat": 12.979049,
    "lon": 77.639058,
    "tags": {
      "amenity": "school",
      "name": "Holy Shepherd English High School"
    }
  },
  {
    "id": 5922659279,
    "type": "node",
    "category": "schools",
    "name": "Hindi Shikshak Training College",
    "lat": 12.991335,
    "lon": 77.550795,
    "tags": {
      "amenity": "college",
      "name": "Hindi Shikshak Training College"
    }
  },
  {
    "id": 5925868185,
    "type": "node",
    "category": "schools",
    "name": "eTestZone Educational Services Pvt Ltd",
    "lat": 12.926917,
    "lon": 77.585046,
    "tags": {
      "addr:street": "32 Cross Road",
      "amenity": "school",
      "opening_hours": "Mo-Sa 09:30-20:30; Su 10:30-13:00",
      "operator": "Gururaj S",
      "phone": "9945988820",
      "website": "http://www.etestzone.com"
    }
  },
  {
    "id": 6081211670,
    "type": "node",
    "category": "schools",
    "name": "Tiny Angels English Primary School",
    "lat": 12.89996,
    "lon": 77.585654,
    "tags": {
      "amenity": "school",
      "name": "Tiny Angels English Primary School"
    }
  },
  {
    "id": 6175816263,
    "type": "node",
    "category": "schools",
    "name": "Teacher's Academy Degree College",
    "lat": 13.028213,
    "lon": 77.630649,
    "tags": {
      "amenity": "college",
      "name": "Teacher's Academy Degree College"
    }
  },
  {
    "id": 6276405887,
    "type": "node",
    "category": "schools",
    "name": "GHPS Anjanapura",
    "lat": 12.86201,
    "lon": 77.564117,
    "tags": {
      "amenity": "school",
      "name": "GHPS Anjanapura",
      "operator": "Department of Education"
    }
  },
  {
    "id": 6346914856,
    "type": "node",
    "category": "schools",
    "name": "GHPS Agara",
    "lat": 12.923779,
    "lon": 77.650165,
    "tags": {
      "amenity": "school",
      "name": "GHPS Agara",
      "operator": "Department of Primary and Secondary Education"
    }
  },
  {
    "id": 6346934417,
    "type": "node",
    "category": "schools",
    "name": "GHPS Aralakunate",
    "lat": 12.898275,
    "lon": 77.65151,
    "tags": {
      "amenity": "school",
      "name": "GHPS Aralakunate",
      "operator": "Department of Education"
    }
  },
  {
    "id": 6346979892,
    "type": "node",
    "category": "schools",
    "name": "GHPS Arakere",
    "lat": 12.88416,
    "lon": 77.60177,
    "tags": {
      "amenity": "school",
      "name": "GHPS Arakere",
      "operator": "Department of Education"
    }
  },
  {
    "id": 6347011498,
    "type": "node",
    "category": "schools",
    "name": "Budda HPS BTM layout",
    "lat": 12.919104,
    "lon": 77.614767,
    "tags": {
      "amenity": "school",
      "name": "Budda HPS BTM layout",
      "operator": "Department of Primary and Secondary Education"
    }
  },
  {
    "id": 6347037472,
    "type": "node",
    "category": "schools",
    "name": "GHPS NS Palya",
    "lat": 12.908793,
    "lon": 77.604554,
    "tags": {
      "amenity": "school",
      "name": "GHPS NS Palya",
      "operator": "Department of Education"
    }
  },
  {
    "id": 6347042239,
    "type": "node",
    "category": "schools",
    "name": "Vidya Jyothi KHPS BTM Layout",
    "lat": 12.914145,
    "lon": 77.616097,
    "tags": {
      "amenity": "school",
      "name": "Vidya Jyothi KHPS BTM Layout",
      "operator": "Department of Primary and Secondary Education"
    }
  },
  {
    "id": 6347046521,
    "type": "node",
    "category": "schools",
    "name": "BET Mahadeshwar Nagar",
    "lat": 12.906674,
    "lon": 77.610934,
    "tags": {
      "amenity": "school",
      "name": "BET Mahadeshwar Nagar",
      "operator": "Department of Education"
    }
  },
  {
    "id": 6347074655,
    "type": "node",
    "category": "schools",
    "name": "GKHPS Vivekangara",
    "lat": 12.955225,
    "lon": 77.621038,
    "tags": {
      "amenity": "school",
      "name": "GKHPS Vivekangara",
      "operator": "Department of Education"
    }
  },
  {
    "id": 6347080518,
    "type": "node",
    "category": "schools",
    "name": "GTELPS Vivekanagara",
    "lat": 12.955113,
    "lon": 77.621078,
    "tags": {
      "amenity": "school",
      "name": "GTELPS Vivekanagara",
      "operator": "Department of Education"
    }
  },
  {
    "id": 6347228492,
    "type": "node",
    "category": "schools",
    "name": "GHPS Beratena Agrahara",
    "lat": 12.867368,
    "lon": 77.65598,
    "tags": {
      "amenity": "school",
      "name": "GHPS Beratena Agrahara",
      "operator": "Department of Primary and Secondary Education"
    }
  },
  {
    "id": 6347237722,
    "type": "node",
    "category": "schools",
    "name": "St Peter Ntm School Doresanipalya",
    "lat": 12.898237,
    "lon": 77.598054,
    "tags": {
      "amenity": "school",
      "name": "St Peter Ntm School Doresanipalya",
      "operator": "Department of Education"
    }
  },
  {
    "id": 6347270755,
    "type": "node",
    "category": "schools",
    "name": "Gnanaprakasham KHPS Bilekalli",
    "lat": 12.899233,
    "lon": 77.603329,
    "tags": {
      "amenity": "school",
      "name": "Gnanaprakasham KHPS Bilekalli",
      "operator": "Department of Education"
    }
  },
  {
    "id": 6347274963,
    "type": "node",
    "category": "schools",
    "name": "GHPS Bilekalli",
    "lat": 12.899817,
    "lon": 77.608307,
    "tags": {
      "amenity": "school",
      "name": "GHPS Bilekalli",
      "operator": "Department of Education"
    }
  },
  {
    "id": 6347299242,
    "type": "node",
    "category": "schools",
    "name": "GKHPS Bommanahalli",
    "lat": 12.906454,
    "lon": 77.629646,
    "tags": {
      "amenity": "school",
      "name": "GKHPS Bommanahalli",
      "operator": "Department of Primary and Secondary Education"
    }
  },
  {
    "id": 6347309061,
    "type": "node",
    "category": "schools",
    "name": "GUHPS Bommanahalli",
    "lat": 12.905705,
    "lon": 77.627114,
    "tags": {
      "amenity": "school",
      "name": "GUHPS Bommanahalli",
      "operator": "Department of Primary and Secondary Education"
    }
  },
  {
    "id": 6348719364,
    "type": "node",
    "category": "schools",
    "name": "GHPS Venugopal Nagar",
    "lat": 12.872227,
    "lon": 77.599536,
    "tags": {
      "amenity": "school",
      "name": "GHPS Venugopal Nagar",
      "operator": "Department of Education"
    }
  },
  {
    "id": 6348722007,
    "type": "node",
    "category": "schools",
    "name": "GUHPS Subhash Nagar",
    "lat": 12.8733,
    "lon": 77.639218,
    "tags": {
      "amenity": "school",
      "name": "GUHPS Subhash Nagar",
      "operator": "Department of Education"
    }
  },
  {
    "id": 6348741188,
    "type": "node",
    "category": "schools",
    "name": "GHPS Chunchaghatta",
    "lat": 12.885891,
    "lon": 77.573881,
    "tags": {
      "amenity": "school",
      "name": "GHPS Chunchaghatta",
      "operator": "Department of Education"
    }
  },
  {
    "id": 6348761817,
    "type": "node",
    "category": "schools",
    "name": "GUPHS Arblen",
    "lat": 12.96555,
    "lon": 77.606112,
    "tags": {
      "amenity": "school",
      "name": "GUPHS Arblen",
      "operator": "Department of Education"
    }
  },
  {
    "id": 6348764653,
    "type": "node",
    "category": "schools",
    "name": "GHPS Doopanahalli",
    "lat": 12.967359,
    "lon": 77.639208,
    "tags": {
      "amenity": "school",
      "name": "GHPS Doopanahalli",
      "operator": "Department of Education"
    }
  },
  {
    "id": 6348765081,
    "type": "node",
    "category": "schools",
    "name": "GHPS Doddathoguru",
    "lat": 12.851664,
    "lon": 77.655936,
    "tags": {
      "amenity": "school",
      "name": "GHPS Doddathoguru",
      "operator": "Department of Primary and Secondary Education"
    }
  },
  {
    "id": 6348771620,
    "type": "node",
    "category": "schools",
    "name": "GHPS Doddanagamangala",
    "lat": 12.862163,
    "lon": 77.675014,
    "tags": {
      "amenity": "school",
      "name": "GHPS Doddanagamangala",
      "operator": "Department of Primary and Secondary Education"
    }
  },
  {
    "id": 6348775331,
    "type": "node",
    "category": "schools",
    "name": "GHPS Devarachikkana Halli",
    "lat": 12.888781,
    "lon": 77.615823,
    "tags": {
      "amenity": "school",
      "name": "GHPS Devarachikkana Halli",
      "operator": "Department of Education"
    }
  },
  {
    "id": 6348786153,
    "type": "node",
    "category": "schools",
    "name": "GHPS Gottigere",
    "lat": 12.859007,
    "lon": 77.589022,
    "tags": {
      "amenity": "school",
      "name": "GHPS Gottigere",
      "operator": "Department of Education"
    }
  },
  {
    "id": 6348790816,
    "type": "node",
    "category": "schools",
    "name": "GHPS Kembathhalli",
    "lat": 12.857255,
    "lon": 77.576942,
    "tags": {
      "amenity": "school",
      "name": "GHPS Kembathhalli",
      "operator": "Department of Education"
    }
  },
  {
    "id": 6348821760,
    "type": "node",
    "category": "schools",
    "name": "GMPS Hongassandra",
    "lat": 12.896159,
    "lon": 77.624303,
    "tags": {
      "amenity": "school",
      "name": "GMPS Hongassandra",
      "operator": "Department of Education"
    }
  },
  {
    "id": 6348823186,
    "type": "node",
    "category": "schools",
    "name": "Svs HPS Hongasandra",
    "lat": 12.891084,
    "lon": 77.627282,
    "tags": {
      "amenity": "school",
      "name": "Svs HPS Hongasandra",
      "operator": "Department of Education"
    }
  },
  {
    "id": 6348823859,
    "type": "node",
    "category": "schools",
    "name": "GHPS (K) Jogupalya",
    "lat": 12.972307,
    "lon": 77.630285,
    "tags": {
      "amenity": "school",
      "name": "GHPS (K) Jogupalya",
      "operator": "Department of Education"
    }
  },
  {
    "id": 6348827978,
    "type": "node",
    "category": "schools",
    "name": "GUHPS Jogupalya",
    "lat": 12.970649,
    "lon": 77.631106,
    "tags": {
      "amenity": "school",
      "name": "GUHPS Jogupalya",
      "operator": "Department of Education"
    }
  },
  {
    "id": 6348833682,
    "type": "node",
    "category": "schools",
    "name": "Sri Ramakrishna HPS Ulsoor",
    "lat": 12.976093,
    "lon": 77.629345,
    "tags": {
      "amenity": "school",
      "name": "Sri Ramakrishna HPS Ulsoor",
      "operator": "Department of Education"
    }
  },
  {
    "id": 6348845055,
    "type": "node",
    "category": "schools",
    "name": "GMPS Marp Adugodi",
    "lat": 12.941141,
    "lon": 77.612018,
    "tags": {
      "amenity": "school",
      "name": "GMPS Marp Adugodi",
      "operator": "Department of Education"
    }
  },
  {
    "id": 6348847356,
    "type": "node",
    "category": "schools",
    "name": "GUHPS Rajendranagar",
    "lat": 12.947526,
    "lon": 77.617165,
    "tags": {
      "amenity": "school",
      "name": "GUHPS Rajendranagar",
      "operator": "Department of Primary and Secondary Education"
    }
  },
  {
    "id": 6348868701,
    "type": "node",
    "category": "schools",
    "name": "Koramangala K&T HPS",
    "lat": 12.94766,
    "lon": 77.61828,
    "tags": {
      "amenity": "school",
      "name": "Koramangala K&T HPS",
      "operator": "Department of Primary and Secondary Education"
    }
  },
  {
    "id": 6348871070,
    "type": "node",
    "category": "schools",
    "name": "Long Memorial HPS",
    "lat": 12.942581,
    "lon": 77.608997,
    "tags": {
      "amenity": "school",
      "name": "Long Memorial HPS",
      "operator": "Department of Education"
    }
  },
  {
    "id": 6348880655,
    "type": "node",
    "category": "schools",
    "name": "GMPS Koramangala",
    "lat": 12.943663,
    "lon": 77.618938,
    "tags": {
      "amenity": "school",
      "name": "GMPS Koramangala",
      "operator": "Department of Primary and Secondary Education"
    }
  },
  {
    "id": 6348899089,
    "type": "node",
    "category": "schools",
    "name": "Shivaganga HPS Koramangala",
    "lat": 12.94917,
    "lon": 77.618855,
    "tags": {
      "amenity": "school",
      "name": "Shivaganga HPS Koramangala",
      "operator": "Department of Primary and Secondary Education"
    }
  },